{
    "type": "FeatureCollection",
    "features": [
   {
     "type": "Feature",
     "geometry": {
        "type": "Point",
        "coordinates":  [ 127.0227848,37.5070301 ]
     },
     "properties": {
     "no":5464,
     "name":"고도일병원",
     "apt_id":1165010710,
     "dist":"929.009931270206"
     }
   },
   {
     "type": "Feature",
     "geometry": {
        "type": "Point",
        "coordinates":  [ 127.0051154,37.5009444 ]
     },
     "properties": {
     "no":5465,
     "name":"서울성모병원",
     "apt_id":1165010710,
     "dist":"1086.19118487681"
     }
   },
   {
     "type": "Feature",
     "geometry": {
        "type": "Point",
        "coordinates":  [ 127.0243422,37.5122594 ]
     },
     "properties": {
     "no":5466,
     "name":"새로운병원",
     "apt_id":1165010710,
     "dist":"1185.22179070355"
     }
   },
   {
     "type": "Feature",
     "geometry": {
        "type": "Point",
        "coordinates":  [ 127.0051154,37.5009444 ]
     },
     "properties": {
     "no":5467,
     "name":"서울성모병원",
     "apt_id":1165010711,
     "dist":"1301.06463176522"
     }
   },
   {
     "type": "Feature",
     "geometry": {
        "type": "Point",
        "coordinates":  [ 126.9899521,37.4930421 ]
     },
     "properties": {
     "no":5468,
     "name":"참푸른병원",
     "apt_id":1165010711,
     "dist":"1361.36422538559"
     }
   },
   {
     "type": "Feature",
     "geometry": {
        "type": "Point",
        "coordinates":  [ 126.9818432,37.5176285 ]
     },
     "properties": {
     "no":5469,
     "name":"금강아산병원",
     "apt_id":1165010711,
     "dist":"1643.97423983441"
     }
   },
   {
     "type": "Feature",
     "geometry": {
        "type": "Point",
        "coordinates":  [ 127.0051154,37.5009444 ]
     },
     "properties": {
     "no":5470,
     "name":"서울성모병원",
     "apt_id":1165010709,
     "dist":"583.219495103734"
     }
   },
   {
     "type": "Feature",
     "geometry": {
        "type": "Point",
        "coordinates":  [ 126.9899521,37.4930421 ]
     },
     "properties": {
     "no":5471,
     "name":"참푸른병원",
     "apt_id":1165010709,
     "dist":"1410.13760742491"
     }
   },
   {
     "type": "Feature",
     "geometry": {
        "type": "Point",
        "coordinates":  [ 126.995067,37.4878422 ]
     },
     "properties": {
     "no":5472,
     "name":"제일병원",
     "apt_id":1165010709,
     "dist":"1602.79193464509"
     }
   },
   {
     "type": "Feature",
     "geometry": {
        "type": "Point",
        "coordinates":  [ 127.0051154,37.5009444 ]
     },
     "properties": {
     "no":5473,
     "name":"서울성모병원",
     "apt_id":1165010643,
     "dist":"952.671359935951"
     }
   },
   {
     "type": "Feature",
     "geometry": {
        "type": "Point",
        "coordinates":  [ 127.0137857,37.4949979 ]
     },
     "properties": {
     "no":5474,
     "name":"염창환병원",
     "apt_id":1165010643,
     "dist":"1943.508068493"
     }
   },
   {
     "type": "Feature",
     "geometry": {
        "type": "Point",
        "coordinates":  [ 126.9899521,37.4930421 ]
     },
     "properties": {
     "no":5475,
     "name":"참푸른병원",
     "apt_id":1165010643,
     "dist":"2011.09402161373"
     }
   },
   {
     "type": "Feature",
     "geometry": {
        "type": "Point",
        "coordinates":  [ 127.033745,37.4899185 ]
     },
     "properties": {
     "no":5476,
     "name":"기쁨병원",
     "apt_id":1165010860,
     "dist":"787.427958189705"
     }
   },
   {
     "type": "Feature",
     "geometry": {
        "type": "Point",
        "coordinates":  [ 127.032598,37.483569 ]
     },
     "properties": {
     "no":5477,
     "name":"서초구보건소",
     "apt_id":1165010860,
     "dist":"872.740382694782"
     }
   },
   {
     "type": "Feature",
     "geometry": {
        "type": "Point",
        "coordinates":  [ 127.0351301,37.4849802 ]
     },
     "properties": {
     "no":5478,
     "name":"강남유나이티드병원",
     "apt_id":1165010860,
     "dist":"1014.25530215467"
     }
   },
   {
     "type": "Feature",
     "geometry": {
        "type": "Point",
        "coordinates":  [ 127.0051154,37.5009444 ]
     },
     "properties": {
     "no":5479,
     "name":"서울성모병원",
     "apt_id":1165010638,
     "dist":"792.711283943099"
     }
   },
   {
     "type": "Feature",
     "geometry": {
        "type": "Point",
        "coordinates":  [ 127.0137857,37.4949979 ]
     },
     "properties": {
     "no":5480,
     "name":"염창환병원",
     "apt_id":1165010638,
     "dist":"1578.70493238509"
     }
   },
   {
     "type": "Feature",
     "geometry": {
        "type": "Point",
        "coordinates":  [ 127.0227848,37.5070301 ]
     },
     "properties": {
     "no":5481,
     "name":"고도일병원",
     "apt_id":1165010638,
     "dist":"1675.99373954775"
     }
   },
   {
     "type": "Feature",
     "geometry": {
        "type": "Point",
        "coordinates":  [ 127.0137857,37.4949979 ]
     },
     "properties": {
     "no":5482,
     "name":"염창환병원",
     "apt_id":1165010714,
     "dist":"886.107117655825"
     }
   },
   {
     "type": "Feature",
     "geometry": {
        "type": "Point",
        "coordinates":  [ 127.0051154,37.5009444 ]
     },
     "properties": {
     "no":5483,
     "name":"서울성모병원",
     "apt_id":1165010714,
     "dist":"892.36043368423"
     }
   },
   {
     "type": "Feature",
     "geometry": {
        "type": "Point",
        "coordinates":  [ 127.0227848,37.5070301 ]
     },
     "properties": {
     "no":5484,
     "name":"고도일병원",
     "apt_id":1165010714,
     "dist":"996.052614385876"
     }
   },
   {
     "type": "Feature",
     "geometry": {
        "type": "Point",
        "coordinates":  [ 127.033745,37.4899185 ]
     },
     "properties": {
     "no":5485,
     "name":"기쁨병원",
     "apt_id":1165010857,
     "dist":"574.810424670786"
     }
   },
   {
     "type": "Feature",
     "geometry": {
        "type": "Point",
        "coordinates":  [ 127.032598,37.483569 ]
     },
     "properties": {
     "no":5486,
     "name":"서초구보건소",
     "apt_id":1165010857,
     "dist":"857.061717901505"
     }
   },
   {
     "type": "Feature",
     "geometry": {
        "type": "Point",
        "coordinates":  [ 127.0351301,37.4849802 ]
     },
     "properties": {
     "no":5487,
     "name":"강남유나이티드병원",
     "apt_id":1165010857,
     "dist":"918.827958939421"
     }
   },
   {
     "type": "Feature",
     "geometry": {
        "type": "Point",
        "coordinates":  [ 127.0137857,37.4949979 ]
     },
     "properties": {
     "no":5488,
     "name":"염창환병원",
     "apt_id":1165010851,
     "dist":"479.648241947187"
     }
   },
   {
     "type": "Feature",
     "geometry": {
        "type": "Point",
        "coordinates":  [ 127.0141365,37.4929843 ]
     },
     "properties": {
     "no":5489,
     "name":"365엠씨병원",
     "apt_id":1165010851,
     "dist":"654.633442522027"
     }
   },
   {
     "type": "Feature",
     "geometry": {
        "type": "Point",
        "coordinates":  [ 127.0227848,37.5070301 ]
     },
     "properties": {
     "no":5490,
     "name":"고도일병원",
     "apt_id":1165010851,
     "dist":"1046.34436584082"
     }
   },
   {
     "type": "Feature",
     "geometry": {
        "type": "Point",
        "coordinates":  [ 126.9899521,37.4930421 ]
     },
     "properties": {
     "no":5491,
     "name":"참푸른병원",
     "apt_id":1165010703,
     "dist":"799.09542335819"
     }
   },
   {
     "type": "Feature",
     "geometry": {
        "type": "Point",
        "coordinates":  [ 126.995067,37.4878422 ]
     },
     "properties": {
     "no":5492,
     "name":"제일병원",
     "apt_id":1165010703,
     "dist":"1471.3801200679"
     }
   },
   {
     "type": "Feature",
     "geometry": {
        "type": "Point",
        "coordinates":  [ 127.0051154,37.5009444 ]
     },
     "properties": {
     "no":5493,
     "name":"서울성모병원",
     "apt_id":1165010703,
     "dist":"1686.2731005124"
     }
   },
   {
     "type": "Feature",
     "geometry": {
        "type": "Point",
        "coordinates":  [ 127.0051154,37.5009444 ]
     },
     "properties": {
     "no":5494,
     "name":"서울성모병원",
     "apt_id":1165010717,
     "dist":"396.183001399315"
     }
   },
   {
     "type": "Feature",
     "geometry": {
        "type": "Point",
        "coordinates":  [ 127.0137857,37.4949979 ]
     },
     "properties": {
     "no":5495,
     "name":"염창환병원",
     "apt_id":1165010717,
     "dist":"888.976034901332"
     }
   },
   {
     "type": "Feature",
     "geometry": {
        "type": "Point",
        "coordinates":  [ 127.0141365,37.4929843 ]
     },
     "properties": {
     "no":5496,
     "name":"365엠씨병원",
     "apt_id":1165010717,
     "dist":"1080.25003347811"
     }
   },
   {
     "type": "Feature",
     "geometry": {
        "type": "Point",
        "coordinates":  [ 127.0157273,37.4852908 ]
     },
     "properties": {
     "no":5497,
     "name":"21세기병원",
     "apt_id":1165010312,
     "dist":"2822.86283516317"
     }
   },
   {
     "type": "Feature",
     "geometry": {
        "type": "Point",
        "coordinates":  [ 127.0153417,37.4859524 ]
     },
     "properties": {
     "no":5498,
     "name":"세바른병원",
     "apt_id":1165010312,
     "dist":"2893.03229926508"
     }
   },
   {
     "type": "Feature",
     "geometry": {
        "type": "Point",
        "coordinates":  [ 127.032598,37.483569 ]
     },
     "properties": {
     "no":5499,
     "name":"서초구보건소",
     "apt_id":1165010312,
     "dist":"3015.19183755441"
     }
   },
   {
     "type": "Feature",
     "geometry": {
        "type": "Point",
        "coordinates":  [ 127.0137857,37.4949979 ]
     },
     "properties": {
     "no":5500,
     "name":"염창환병원",
     "apt_id":1165010849,
     "dist":"639.546626580361"
     }
   },
   {
     "type": "Feature",
     "geometry": {
        "type": "Point",
        "coordinates":  [ 127.0141365,37.4929843 ]
     },
     "properties": {
     "no":5501,
     "name":"365엠씨병원",
     "apt_id":1165010849,
     "dist":"747.796382501874"
     }
   },
   {
     "type": "Feature",
     "geometry": {
        "type": "Point",
        "coordinates":  [ 127.0227848,37.5070301 ]
     },
     "properties": {
     "no":5502,
     "name":"고도일병원",
     "apt_id":1165010849,
     "dist":"938.795272284795"
     }
   },
   {
     "type": "Feature",
     "geometry": {
        "type": "Point",
        "coordinates":  [ 127.0689282,37.4557936 ]
     },
     "properties": {
     "no":5503,
     "name":"서울특별시어린이병원",
     "apt_id":1165010901,
     "dist":"638.335184578975"
     }
   },
   {
     "type": "Feature",
     "geometry": {
        "type": "Point",
        "coordinates":  [ 127.0387018,37.4799379 ]
     },
     "properties": {
     "no":5504,
     "name":"참포도나무병원",
     "apt_id":1165010901,
     "dist":"3719.64345637562"
     }
   },
   {
     "type": "Feature",
     "geometry": {
        "type": "Point",
        "coordinates":  [ 127.0396045,37.4856196 ]
     },
     "properties": {
     "no":5505,
     "name":"강남베드로병원",
     "apt_id":1165010901,
     "dist":"4108.65761434101"
     }
   },
   {
     "type": "Feature",
     "geometry": {
        "type": "Point",
        "coordinates":  [ 127.0689282,37.4557936 ]
     },
     "properties": {
     "no":5506,
     "name":"서울특별시어린이병원",
     "apt_id":1165010902,
     "dist":"780.027228135971"
     }
   },
   {
     "type": "Feature",
     "geometry": {
        "type": "Point",
        "coordinates":  [ 127.0387018,37.4799379 ]
     },
     "properties": {
     "no":5507,
     "name":"참포도나무병원",
     "apt_id":1165010902,
     "dist":"3367.01452986349"
     }
   },
   {
     "type": "Feature",
     "geometry": {
        "type": "Point",
        "coordinates":  [ 127.0396045,37.4856196 ]
     },
     "properties": {
     "no":5508,
     "name":"강남베드로병원",
     "apt_id":1165010902,
     "dist":"3756.23748182027"
     }
   },
   {
     "type": "Feature",
     "geometry": {
        "type": "Point",
        "coordinates":  [ 127.0387018,37.4799379 ]
     },
     "properties": {
     "no":5509,
     "name":"참포도나무병원",
     "apt_id":1165010307,
     "dist":"1885.43871281291"
     }
   },
   {
     "type": "Feature",
     "geometry": {
        "type": "Point",
        "coordinates":  [ 127.032598,37.483569 ]
     },
     "properties": {
     "no":5510,
     "name":"서초구보건소",
     "apt_id":1165010307,
     "dist":"1962.65902131849"
     }
   },
   {
     "type": "Feature",
     "geometry": {
        "type": "Point",
        "coordinates":  [ 127.0351301,37.4849802 ]
     },
     "properties": {
     "no":5511,
     "name":"강남유나이티드병원",
     "apt_id":1165010307,
     "dist":"2173.42700706039"
     }
   },
   {
     "type": "Feature",
     "geometry": {
        "type": "Point",
        "coordinates":  [ 127.0051154,37.5009444 ]
     },
     "properties": {
     "no":5512,
     "name":"서울성모병원",
     "apt_id":1165010726,
     "dist":"916.794789707805"
     }
   },
   {
     "type": "Feature",
     "geometry": {
        "type": "Point",
        "coordinates":  [ 126.9899521,37.4930421 ]
     },
     "properties": {
     "no":5513,
     "name":"참푸른병원",
     "apt_id":1165010726,
     "dist":"1620.09715740309"
     }
   },
   {
     "type": "Feature",
     "geometry": {
        "type": "Point",
        "coordinates":  [ 126.995067,37.4878422 ]
     },
     "properties": {
     "no":5514,
     "name":"제일병원",
     "apt_id":1165010726,
     "dist":"1941.36535230564"
     }
   },
   {
     "type": "Feature",
     "geometry": {
        "type": "Point",
        "coordinates":  [ 127.0137857,37.4949979 ]
     },
     "properties": {
     "no":5515,
     "name":"염창환병원",
     "apt_id":1165010706,
     "dist":"696.344616384308"
     }
   },
   {
     "type": "Feature",
     "geometry": {
        "type": "Point",
        "coordinates":  [ 127.0051154,37.5009444 ]
     },
     "properties": {
     "no":5516,
     "name":"서울성모병원",
     "apt_id":1165010706,
     "dist":"843.548541639904"
     }
   },
   {
     "type": "Feature",
     "geometry": {
        "type": "Point",
        "coordinates":  [ 127.0141365,37.4929843 ]
     },
     "properties": {
     "no":5517,
     "name":"365엠씨병원",
     "apt_id":1165010706,
     "dist":"901.767559045816"
     }
   },
   {
     "type": "Feature",
     "geometry": {
        "type": "Point",
        "coordinates":  [ 127.0051154,37.5009444 ]
     },
     "properties": {
     "no":5518,
     "name":"서울성모병원",
     "apt_id":1165010648,
     "dist":"708.546669074161"
     }
   },
   {
     "type": "Feature",
     "geometry": {
        "type": "Point",
        "coordinates":  [ 127.0137857,37.4949979 ]
     },
     "properties": {
     "no":5519,
     "name":"염창환병원",
     "apt_id":1165010648,
     "dist":"1725.95679634185"
     }
   },
   {
     "type": "Feature",
     "geometry": {
        "type": "Point",
        "coordinates":  [ 126.9899521,37.4930421 ]
     },
     "properties": {
     "no":5520,
     "name":"참푸른병원",
     "apt_id":1165010648,
     "dist":"1848.88558191415"
     }
   },
   {
     "type": "Feature",
     "geometry": {
        "type": "Point",
        "coordinates":  [ 127.0051154,37.5009444 ]
     },
     "properties": {
     "no":5521,
     "name":"서울성모병원",
     "apt_id":1165010646,
     "dist":"994.119981612206"
     }
   },
   {
     "type": "Feature",
     "geometry": {
        "type": "Point",
        "coordinates":  [ 127.0227848,37.5070301 ]
     },
     "properties": {
     "no":5522,
     "name":"고도일병원",
     "apt_id":1165010646,
     "dist":"1254.40792996224"
     }
   },
   {
     "type": "Feature",
     "geometry": {
        "type": "Point",
        "coordinates":  [ 127.0243422,37.5122594 ]
     },
     "properties": {
     "no":5523,
     "name":"새로운병원",
     "apt_id":1165010646,
     "dist":"1428.57493045057"
     }
   },
   {
     "type": "Feature",
     "geometry": {
        "type": "Point",
        "coordinates":  [ 127.0227848,37.5070301 ]
     },
     "properties": {
     "no":5524,
     "name":"고도일병원",
     "apt_id":1165010802,
     "dist":"597.422498708679"
     }
   },
   {
     "type": "Feature",
     "geometry": {
        "type": "Point",
        "coordinates":  [ 127.0137857,37.4949979 ]
     },
     "properties": {
     "no":5525,
     "name":"염창환병원",
     "apt_id":1165010802,
     "dist":"982.660198211061"
     }
   },
   {
     "type": "Feature",
     "geometry": {
        "type": "Point",
        "coordinates":  [ 127.0141365,37.4929843 ]
     },
     "properties": {
     "no":5526,
     "name":"365엠씨병원",
     "apt_id":1165010802,
     "dist":"1103.00883473114"
     }
   },
   {
     "type": "Feature",
     "geometry": {
        "type": "Point",
        "coordinates":  [ 127.0043999,37.4862375 ]
     },
     "properties": {
     "no":5527,
     "name":"올바로병원",
     "apt_id":1165010140,
     "dist":"1064.95478218882"
     }
   },
   {
     "type": "Feature",
     "geometry": {
        "type": "Point",
        "coordinates":  [ 126.9878957,37.475653 ]
     },
     "properties": {
     "no":5528,
     "name":"대항병원",
     "apt_id":1165010140,
     "dist":"1191.47543968306"
     }
   },
   {
     "type": "Feature",
     "geometry": {
        "type": "Point",
        "coordinates":  [ 126.995067,37.4878422 ]
     },
     "properties": {
     "no":5529,
     "name":"제일병원",
     "apt_id":1165010140,
     "dist":"1203.35056698532"
     }
   },
   {
     "type": "Feature",
     "geometry": {
        "type": "Point",
        "coordinates":  [ 127.0227848,37.5070301 ]
     },
     "properties": {
     "no":5530,
     "name":"고도일병원",
     "apt_id":1165010713,
     "dist":"737.492796306903"
     }
   },
   {
     "type": "Feature",
     "geometry": {
        "type": "Point",
        "coordinates":  [ 127.0137857,37.4949979 ]
     },
     "properties": {
     "no":5531,
     "name":"염창환병원",
     "apt_id":1165010713,
     "dist":"785.490436790327"
     }
   },
   {
     "type": "Feature",
     "geometry": {
        "type": "Point",
        "coordinates":  [ 127.0141365,37.4929843 ]
     },
     "properties": {
     "no":5532,
     "name":"365엠씨병원",
     "apt_id":1165010713,
     "dist":"948.488002616351"
     }
   },
   {
     "type": "Feature",
     "geometry": {
        "type": "Point",
        "coordinates":  [ 127.0051154,37.5009444 ]
     },
     "properties": {
     "no":5533,
     "name":"서울성모병원",
     "apt_id":1165010603,
     "dist":"1427.23518108385"
     }
   },
   {
     "type": "Feature",
     "geometry": {
        "type": "Point",
        "coordinates":  [ 127.0241884,37.51768 ]
     },
     "properties": {
     "no":5534,
     "name":"아이디병원",
     "apt_id":1165010603,
     "dist":"1711.180463596"
     }
   },
   {
     "type": "Feature",
     "geometry": {
        "type": "Point",
        "coordinates":  [ 127.0243422,37.5122594 ]
     },
     "properties": {
     "no":5535,
     "name":"새로운병원",
     "apt_id":1165010603,
     "dist":"1723.2443637796"
     }
   },
   {
     "type": "Feature",
     "geometry": {
        "type": "Point",
        "coordinates":  [ 127.0227848,37.5070301 ]
     },
     "properties": {
     "no":5536,
     "name":"고도일병원",
     "apt_id":1165010803,
     "dist":"665.719365428583"
     }
   },
   {
     "type": "Feature",
     "geometry": {
        "type": "Point",
        "coordinates":  [ 127.0137857,37.4949979 ]
     },
     "properties": {
     "no":5537,
     "name":"염창환병원",
     "apt_id":1165010803,
     "dist":"983.658184786771"
     }
   },
   {
     "type": "Feature",
     "geometry": {
        "type": "Point",
        "coordinates":  [ 127.0141365,37.4929843 ]
     },
     "properties": {
     "no":5538,
     "name":"365엠씨병원",
     "apt_id":1165010803,
     "dist":"1086.11505699239"
     }
   },
   {
     "type": "Feature",
     "geometry": {
        "type": "Point",
        "coordinates":  [ 127.0137857,37.4949979 ]
     },
     "properties": {
     "no":5539,
     "name":"염창환병원",
     "apt_id":1165010852,
     "dist":"381.186026957862"
     }
   },
   {
     "type": "Feature",
     "geometry": {
        "type": "Point",
        "coordinates":  [ 127.0141365,37.4929843 ]
     },
     "properties": {
     "no":5540,
     "name":"365엠씨병원",
     "apt_id":1165010852,
     "dist":"587.662841679788"
     }
   },
   {
     "type": "Feature",
     "geometry": {
        "type": "Point",
        "coordinates":  [ 127.0051154,37.5009444 ]
     },
     "properties": {
     "no":5541,
     "name":"서울성모병원",
     "apt_id":1165010852,
     "dist":"831.543897771648"
     }
   },
   {
     "type": "Feature",
     "geometry": {
        "type": "Point",
        "coordinates":  [ 127.0051154,37.5009444 ]
     },
     "properties": {
     "no":5542,
     "name":"서울성모병원",
     "apt_id":1165010604,
     "dist":"989.430848902564"
     }
   },
   {
     "type": "Feature",
     "geometry": {
        "type": "Point",
        "coordinates":  [ 127.0227848,37.5070301 ]
     },
     "properties": {
     "no":5543,
     "name":"고도일병원",
     "apt_id":1165010604,
     "dist":"1486.88951326283"
     }
   },
   {
     "type": "Feature",
     "geometry": {
        "type": "Point",
        "coordinates":  [ 127.0243422,37.5122594 ]
     },
     "properties": {
     "no":5544,
     "name":"새로운병원",
     "apt_id":1165010604,
     "dist":"1623.93895037848"
     }
   },
   {
     "type": "Feature",
     "geometry": {
        "type": "Point",
        "coordinates":  [ 127.0137857,37.4949979 ]
     },
     "properties": {
     "no":5545,
     "name":"염창환병원",
     "apt_id":1165010725,
     "dist":"576.112943569334"
     }
   },
   {
     "type": "Feature",
     "geometry": {
        "type": "Point",
        "coordinates":  [ 127.0141365,37.4929843 ]
     },
     "properties": {
     "no":5546,
     "name":"365엠씨병원",
     "apt_id":1165010725,
     "dist":"779.251290061297"
     }
   },
   {
     "type": "Feature",
     "geometry": {
        "type": "Point",
        "coordinates":  [ 127.0051154,37.5009444 ]
     },
     "properties": {
     "no":5547,
     "name":"서울성모병원",
     "apt_id":1165010725,
     "dist":"898.923875432629"
     }
   },
   {
     "type": "Feature",
     "geometry": {
        "type": "Point",
        "coordinates":  [ 127.0137857,37.4949979 ]
     },
     "properties": {
     "no":5548,
     "name":"염창환병원",
     "apt_id":1165010854,
     "dist":"498.752303469988"
     }
   },
   {
     "type": "Feature",
     "geometry": {
        "type": "Point",
        "coordinates":  [ 127.0141365,37.4929843 ]
     },
     "properties": {
     "no":5549,
     "name":"365엠씨병원",
     "apt_id":1165010854,
     "dist":"551.920108342951"
     }
   },
   {
     "type": "Feature",
     "geometry": {
        "type": "Point",
        "coordinates":  [ 127.0153417,37.4859524 ]
     },
     "properties": {
     "no":5550,
     "name":"세바른병원",
     "apt_id":1165010854,
     "dist":"1081.74839753959"
     }
   },
   {
     "type": "Feature",
     "geometry": {
        "type": "Point",
        "coordinates":  [ 127.033745,37.4899185 ]
     },
     "properties": {
     "no":5551,
     "name":"기쁨병원",
     "apt_id":1165010855,
     "dist":"732.321819798387"
     }
   },
   {
     "type": "Feature",
     "geometry": {
        "type": "Point",
        "coordinates":  [ 127.032598,37.483569 ]
     },
     "properties": {
     "no":5552,
     "name":"서초구보건소",
     "apt_id":1165010855,
     "dist":"1089.7235163127"
     }
   },
   {
     "type": "Feature",
     "geometry": {
        "type": "Point",
        "coordinates":  [ 127.0351301,37.4849802 ]
     },
     "properties": {
     "no":5553,
     "name":"강남유나이티드병원",
     "apt_id":1165010855,
     "dist":"1135.24481974408"
     }
   },
   {
     "type": "Feature",
     "geometry": {
        "type": "Point",
        "coordinates":  [ 127.0141365,37.4929843 ]
     },
     "properties": {
     "no":5554,
     "name":"365엠씨병원",
     "apt_id":1165010811,
     "dist":"996.722034930913"
     }
   },
   {
     "type": "Feature",
     "geometry": {
        "type": "Point",
        "coordinates":  [ 127.033745,37.4899185 ]
     },
     "properties": {
     "no":5555,
     "name":"기쁨병원",
     "apt_id":1165010811,
     "dist":"1011.93999445069"
     }
   },
   {
     "type": "Feature",
     "geometry": {
        "type": "Point",
        "coordinates":  [ 127.0153417,37.4859524 ]
     },
     "properties": {
     "no":5556,
     "name":"세바른병원",
     "apt_id":1165010811,
     "dist":"1064.33717449965"
     }
   },
   {
     "type": "Feature",
     "geometry": {
        "type": "Point",
        "coordinates":  [ 127.032598,37.483569 ]
     },
     "properties": {
     "no":5557,
     "name":"서초구보건소",
     "apt_id":1165010201,
     "dist":"884.608174746739"
     }
   },
   {
     "type": "Feature",
     "geometry": {
        "type": "Point",
        "coordinates":  [ 127.0387018,37.4799379 ]
     },
     "properties": {
     "no":5558,
     "name":"참포도나무병원",
     "apt_id":1165010201,
     "dist":"900.861178185164"
     }
   },
   {
     "type": "Feature",
     "geometry": {
        "type": "Point",
        "coordinates":  [ 127.0351301,37.4849802 ]
     },
     "properties": {
     "no":5559,
     "name":"강남유나이티드병원",
     "apt_id":1165010201,
     "dist":"1087.61398267099"
     }
   },
   {
     "type": "Feature",
     "geometry": {
        "type": "Point",
        "coordinates":  [ 127.0241884,37.51768 ]
     },
     "properties": {
     "no":5560,
     "name":"아이디병원",
     "apt_id":1165010619,
     "dist":"1400.77169813503"
     }
   },
   {
     "type": "Feature",
     "geometry": {
        "type": "Point",
        "coordinates":  [ 127.0243422,37.5122594 ]
     },
     "properties": {
     "no":5561,
     "name":"새로운병원",
     "apt_id":1165010619,
     "dist":"1455.90827047078"
     }
   },
   {
     "type": "Feature",
     "geometry": {
        "type": "Point",
        "coordinates":  [ 127.0227848,37.5070301 ]
     },
     "properties": {
     "no":5562,
     "name":"고도일병원",
     "apt_id":1165010619,
     "dist":"1542.91063642903"
     }
   },
   {
     "type": "Feature",
     "geometry": {
        "type": "Point",
        "coordinates":  [ 127.0157273,37.4852908 ]
     },
     "properties": {
     "no":5563,
     "name":"21세기병원",
     "apt_id":1165010311,
     "dist":"2916.40349928102"
     }
   },
   {
     "type": "Feature",
     "geometry": {
        "type": "Point",
        "coordinates":  [ 127.0153417,37.4859524 ]
     },
     "properties": {
     "no":5564,
     "name":"세바른병원",
     "apt_id":1165010311,
     "dist":"2979.71632254714"
     }
   },
   {
     "type": "Feature",
     "geometry": {
        "type": "Point",
        "coordinates":  [ 127.0043999,37.4862375 ]
     },
     "properties": {
     "no":5565,
     "name":"올바로병원",
     "apt_id":1165010311,
     "dist":"3124.80862069769"
     }
   },
   {
     "type": "Feature",
     "geometry": {
        "type": "Point",
        "coordinates":  [ 127.0241884,37.51768 ]
     },
     "properties": {
     "no":5566,
     "name":"아이디병원",
     "apt_id":1165010602,
     "dist":"1240.1059911571"
     }
   },
   {
     "type": "Feature",
     "geometry": {
        "type": "Point",
        "coordinates":  [ 127.0243422,37.5122594 ]
     },
     "properties": {
     "no":5567,
     "name":"새로운병원",
     "apt_id":1165010602,
     "dist":"1269.3523721724"
     }
   },
   {
     "type": "Feature",
     "geometry": {
        "type": "Point",
        "coordinates":  [ 127.0227848,37.5070301 ]
     },
     "properties": {
     "no":5568,
     "name":"고도일병원",
     "apt_id":1165010602,
     "dist":"1360.52621086536"
     }
   },
   {
     "type": "Feature",
     "geometry": {
        "type": "Point",
        "coordinates":  [ 126.9814925,37.4825532 ]
     },
     "properties": {
     "no":5569,
     "name":"더본병원",
     "apt_id":1165010116,
     "dist":"347.272229474103"
     }
   },
   {
     "type": "Feature",
     "geometry": {
        "type": "Point",
        "coordinates":  [ 126.9805813,37.4843925 ]
     },
     "properties": {
     "no":5570,
     "name":"연세바른병원",
     "apt_id":1165010116,
     "dist":"417.399317667366"
     }
   },
   {
     "type": "Feature",
     "geometry": {
        "type": "Point",
        "coordinates":  [ 126.9866983,37.4767222 ]
     },
     "properties": {
     "no":5571,
     "name":"연세사랑병원",
     "apt_id":1165010116,
     "dist":"748.476096129958"
     }
   },
   {
     "type": "Feature",
     "geometry": {
        "type": "Point",
        "coordinates":  [ 126.9805813,37.4843925 ]
     },
     "properties": {
     "no":5572,
     "name":"연세바른병원",
     "apt_id":1165010109,
     "dist":"563.037717136327"
     }
   },
   {
     "type": "Feature",
     "geometry": {
        "type": "Point",
        "coordinates":  [ 126.9814925,37.4825532 ]
     },
     "properties": {
     "no":5573,
     "name":"더본병원",
     "apt_id":1165010109,
     "dist":"698.157568529884"
     }
   },
   {
     "type": "Feature",
     "geometry": {
        "type": "Point",
        "coordinates":  [ 126.9899521,37.4930421 ]
     },
     "properties": {
     "no":5574,
     "name":"참푸른병원",
     "apt_id":1165010109,
     "dist":"766.585935435658"
     }
   },
   {
     "type": "Feature",
     "geometry": {
        "type": "Point",
        "coordinates":  [ 127.0137857,37.4949979 ]
     },
     "properties": {
     "no":5575,
     "name":"염창환병원",
     "apt_id":1165010804,
     "dist":"951.620012285645"
     }
   },
   {
     "type": "Feature",
     "geometry": {
        "type": "Point",
        "coordinates":  [ 127.0227848,37.5070301 ]
     },
     "properties": {
     "no":5576,
     "name":"고도일병원",
     "apt_id":1165010804,
     "dist":"980.653108732663"
     }
   },
   {
     "type": "Feature",
     "geometry": {
        "type": "Point",
        "coordinates":  [ 127.0141365,37.4929843 ]
     },
     "properties": {
     "no":5577,
     "name":"365엠씨병원",
     "apt_id":1165010804,
     "dist":"989.240371741684"
     }
   },
   {
     "type": "Feature",
     "geometry": {
        "type": "Point",
        "coordinates":  [ 127.0043999,37.4862375 ]
     },
     "properties": {
     "no":5578,
     "name":"올바로병원",
     "apt_id":1165010102,
     "dist":"866.884406491086"
     }
   },
   {
     "type": "Feature",
     "geometry": {
        "type": "Point",
        "coordinates":  [ 127.0157273,37.4852908 ]
     },
     "properties": {
     "no":5579,
     "name":"21세기병원",
     "apt_id":1165010102,
     "dist":"1319.46023272391"
     }
   },
   {
     "type": "Feature",
     "geometry": {
        "type": "Point",
        "coordinates":  [ 127.0153417,37.4859524 ]
     },
     "properties": {
     "no":5580,
     "name":"세바른병원",
     "apt_id":1165010102,
     "dist":"1328.9410475309"
     }
   },
   {
     "type": "Feature",
     "geometry": {
        "type": "Point",
        "coordinates":  [ 127.0157273,37.4852908 ]
     },
     "properties": {
     "no":5581,
     "name":"21세기병원",
     "apt_id":1165010829,
     "dist":"251.828029662755"
     }
   },
   {
     "type": "Feature",
     "geometry": {
        "type": "Point",
        "coordinates":  [ 127.0153417,37.4859524 ]
     },
     "properties": {
     "no":5582,
     "name":"세바른병원",
     "apt_id":1165010829,
     "dist":"324.911094515557"
     }
   },
   {
     "type": "Feature",
     "geometry": {
        "type": "Point",
        "coordinates":  [ 127.0141365,37.4929843 ]
     },
     "properties": {
     "no":5583,
     "name":"365엠씨병원",
     "apt_id":1165010829,
     "dist":"1045.353718301"
     }
   },
   {
     "type": "Feature",
     "geometry": {
        "type": "Point",
        "coordinates":  [ 127.0689282,37.4557936 ]
     },
     "properties": {
     "no":5584,
     "name":"서울특별시어린이병원",
     "apt_id":1165011104,
     "dist":"1482.38802603145"
     }
   },
   {
     "type": "Feature",
     "geometry": {
        "type": "Point",
        "coordinates":  [ 127.0387018,37.4799379 ]
     },
     "properties": {
     "no":5585,
     "name":"참포도나무병원",
     "apt_id":1165011104,
     "dist":"3487.55308166331"
     }
   },
   {
     "type": "Feature",
     "geometry": {
        "type": "Point",
        "coordinates":  [ 127.0396045,37.4856196 ]
     },
     "properties": {
     "no":5586,
     "name":"강남베드로병원",
     "apt_id":1165011104,
     "dist":"3960.63400086006"
     }
   },
   {
     "type": "Feature",
     "geometry": {
        "type": "Point",
        "coordinates":  [ 127.0689282,37.4557936 ]
     },
     "properties": {
     "no":5587,
     "name":"서울특별시어린이병원",
     "apt_id":1165011102,
     "dist":"1268.78610996106"
     }
   },
   {
     "type": "Feature",
     "geometry": {
        "type": "Point",
        "coordinates":  [ 127.0387018,37.4799379 ]
     },
     "properties": {
     "no":5588,
     "name":"참포도나무병원",
     "apt_id":1165011102,
     "dist":"3421.5710933217"
     }
   },
   {
     "type": "Feature",
     "geometry": {
        "type": "Point",
        "coordinates":  [ 127.0396045,37.4856196 ]
     },
     "properties": {
     "no":5589,
     "name":"강남베드로병원",
     "apt_id":1165011102,
     "dist":"3873.28148215857"
     }
   },
   {
     "type": "Feature",
     "geometry": {
        "type": "Point",
        "coordinates":  [ 127.0227848,37.5070301 ]
     },
     "properties": {
     "no":5590,
     "name":"고도일병원",
     "apt_id":1165010621,
     "dist":"1069.01208102598"
     }
   },
   {
     "type": "Feature",
     "geometry": {
        "type": "Point",
        "coordinates":  [ 127.0243422,37.5122594 ]
     },
     "properties": {
     "no":5591,
     "name":"새로운병원",
     "apt_id":1165010621,
     "dist":"1074.55866891976"
     }
   },
   {
     "type": "Feature",
     "geometry": {
        "type": "Point",
        "coordinates":  [ 127.0241884,37.51768 ]
     },
     "properties": {
     "no":5592,
     "name":"아이디병원",
     "apt_id":1165010621,
     "dist":"1182.55995513968"
     }
   },
   {
     "type": "Feature",
     "geometry": {
        "type": "Point",
        "coordinates":  [ 127.0227848,37.5070301 ]
     },
     "properties": {
     "no":5593,
     "name":"고도일병원",
     "apt_id":1165010626,
     "dist":"1165.57838563864"
     }
   },
   {
     "type": "Feature",
     "geometry": {
        "type": "Point",
        "coordinates":  [ 127.0243422,37.5122594 ]
     },
     "properties": {
     "no":5594,
     "name":"새로운병원",
     "apt_id":1165010626,
     "dist":"1242.15613952575"
     }
   },
   {
     "type": "Feature",
     "geometry": {
        "type": "Point",
        "coordinates":  [ 127.0051154,37.5009444 ]
     },
     "properties": {
     "no":5595,
     "name":"서울성모병원",
     "apt_id":1165010626,
     "dist":"1264.37022930955"
     }
   },
   {
     "type": "Feature",
     "geometry": {
        "type": "Point",
        "coordinates":  [ 127.0051154,37.5009444 ]
     },
     "properties": {
     "no":5596,
     "name":"서울성모병원",
     "apt_id":1165010651,
     "dist":"685.491364829761"
     }
   },
   {
     "type": "Feature",
     "geometry": {
        "type": "Point",
        "coordinates":  [ 127.0137857,37.4949979 ]
     },
     "properties": {
     "no":5597,
     "name":"염창환병원",
     "apt_id":1165010651,
     "dist":"1659.80469929503"
     }
   },
   {
     "type": "Feature",
     "geometry": {
        "type": "Point",
        "coordinates":  [ 127.0141365,37.4929843 ]
     },
     "properties": {
     "no":5598,
     "name":"365엠씨병원",
     "apt_id":1165010651,
     "dist":"1839.69335546104"
     }
   },
   {
     "type": "Feature",
     "geometry": {
        "type": "Point",
        "coordinates":  [ 127.0227848,37.5070301 ]
     },
     "properties": {
     "no":5599,
     "name":"고도일병원",
     "apt_id":1165010801,
     "dist":"548.059374479369"
     }
   },
   {
     "type": "Feature",
     "geometry": {
        "type": "Point",
        "coordinates":  [ 127.0137857,37.4949979 ]
     },
     "properties": {
     "no":5600,
     "name":"염창환병원",
     "apt_id":1165010801,
     "dist":"983.724955797053"
     }
   },
   {
     "type": "Feature",
     "geometry": {
        "type": "Point",
        "coordinates":  [ 127.0243422,37.5122594 ]
     },
     "properties": {
     "no":5601,
     "name":"새로운병원",
     "apt_id":1165010801,
     "dist":"1095.23177069958"
     }
   },
   {
     "type": "Feature",
     "geometry": {
        "type": "Point",
        "coordinates":  [ 127.0137857,37.4949979 ]
     },
     "properties": {
     "no":5602,
     "name":"염창환병원",
     "apt_id":1165010853,
     "dist":"412.231925001581"
     }
   },
   {
     "type": "Feature",
     "geometry": {
        "type": "Point",
        "coordinates":  [ 127.0141365,37.4929843 ]
     },
     "properties": {
     "no":5603,
     "name":"365엠씨병원",
     "apt_id":1165010853,
     "dist":"516.346408308645"
     }
   },
   {
     "type": "Feature",
     "geometry": {
        "type": "Point",
        "coordinates":  [ 127.0153417,37.4859524 ]
     },
     "properties": {
     "no":5604,
     "name":"세바른병원",
     "apt_id":1165010853,
     "dist":"1128.81641197463"
     }
   },
   {
     "type": "Feature",
     "geometry": {
        "type": "Point",
        "coordinates":  [ 127.033745,37.4899185 ]
     },
     "properties": {
     "no":5605,
     "name":"기쁨병원",
     "apt_id":1165010810,
     "dist":"914.967273313682"
     }
   },
   {
     "type": "Feature",
     "geometry": {
        "type": "Point",
        "coordinates":  [ 127.0141365,37.4929843 ]
     },
     "properties": {
     "no":5606,
     "name":"365엠씨병원",
     "apt_id":1165010810,
     "dist":"1115.20896791503"
     }
   },
   {
     "type": "Feature",
     "geometry": {
        "type": "Point",
        "coordinates":  [ 127.0137857,37.4949979 ]
     },
     "properties": {
     "no":5607,
     "name":"염창환병원",
     "apt_id":1165010810,
     "dist":"1171.16315054053"
     }
   },
   {
     "type": "Feature",
     "geometry": {
        "type": "Point",
        "coordinates":  [ 127.0051154,37.5009444 ]
     },
     "properties": {
     "no":5608,
     "name":"서울성모병원",
     "apt_id":1165010707,
     "dist":"834.544783055671"
     }
   },
   {
     "type": "Feature",
     "geometry": {
        "type": "Point",
        "coordinates":  [ 126.9899521,37.4930421 ]
     },
     "properties": {
     "no":5609,
     "name":"참푸른병원",
     "apt_id":1165010707,
     "dist":"1107.8336682667"
     }
   },
   {
     "type": "Feature",
     "geometry": {
        "type": "Point",
        "coordinates":  [ 126.995067,37.4878422 ]
     },
     "properties": {
     "no":5610,
     "name":"제일병원",
     "apt_id":1165010707,
     "dist":"1396.26641651646"
     }
   },
   {
     "type": "Feature",
     "geometry": {
        "type": "Point",
        "coordinates":  [ 127.0241884,37.51768 ]
     },
     "properties": {
     "no":5611,
     "name":"아이디병원",
     "apt_id":1165010615,
     "dist":"1161.16889035095"
     }
   },
   {
     "type": "Feature",
     "geometry": {
        "type": "Point",
        "coordinates":  [ 127.0243422,37.5122594 ]
     },
     "properties": {
     "no":5612,
     "name":"새로운병원",
     "apt_id":1165010615,
     "dist":"1306.99345642274"
     }
   },
   {
     "type": "Feature",
     "geometry": {
        "type": "Point",
        "coordinates":  [ 127.0227848,37.5070301 ]
     },
     "properties": {
     "no":5613,
     "name":"고도일병원",
     "apt_id":1165010615,
     "dist":"1497.8354588165"
     }
   },
   {
     "type": "Feature",
     "geometry": {
        "type": "Point",
        "coordinates":  [ 127.0387018,37.4799379 ]
     },
     "properties": {
     "no":5614,
     "name":"참포도나무병원",
     "apt_id":1165010313,
     "dist":"2493.33859293688"
     }
   },
   {
     "type": "Feature",
     "geometry": {
        "type": "Point",
        "coordinates":  [ 127.032598,37.483569 ]
     },
     "properties": {
     "no":5615,
     "name":"서초구보건소",
     "apt_id":1165010313,
     "dist":"2563.38196676162"
     }
   },
   {
     "type": "Feature",
     "geometry": {
        "type": "Point",
        "coordinates":  [ 127.0351301,37.4849802 ]
     },
     "properties": {
     "no":5616,
     "name":"강남유나이티드병원",
     "apt_id":1165010313,
     "dist":"2782.24087077932"
     }
   },
   {
     "type": "Feature",
     "geometry": {
        "type": "Point",
        "coordinates":  [ 127.033745,37.4899185 ]
     },
     "properties": {
     "no":5617,
     "name":"기쁨병원",
     "apt_id":1165010808,
     "dist":"832.915859279969"
     }
   },
   {
     "type": "Feature",
     "geometry": {
        "type": "Point",
        "coordinates":  [ 127.0361559,37.5015778 ]
     },
     "properties": {
     "no":5618,
     "name":"선한목자병원",
     "apt_id":1165010808,
     "dist":"1177.74922083815"
     }
   },
   {
     "type": "Feature",
     "geometry": {
        "type": "Point",
        "coordinates":  [ 127.032598,37.483569 ]
     },
     "properties": {
     "no":5619,
     "name":"서초구보건소",
     "apt_id":1165010808,
     "dist":"1246.06195215887"
     }
   },
   {
     "type": "Feature",
     "geometry": {
        "type": "Point",
        "coordinates":  [ 127.0241884,37.51768 ]
     },
     "properties": {
     "no":5620,
     "name":"아이디병원",
     "apt_id":1165010611,
     "dist":"958.582616400378"
     }
   },
   {
     "type": "Feature",
     "geometry": {
        "type": "Point",
        "coordinates":  [ 127.0243422,37.5122594 ]
     },
     "properties": {
     "no":5621,
     "name":"새로운병원",
     "apt_id":1165010611,
     "dist":"1034.70527024321"
     }
   },
   {
     "type": "Feature",
     "geometry": {
        "type": "Point",
        "coordinates":  [ 127.0227848,37.5070301 ]
     },
     "properties": {
     "no":5622,
     "name":"고도일병원",
     "apt_id":1165010611,
     "dist":"1216.38839990618"
     }
   },
   {
     "type": "Feature",
     "geometry": {
        "type": "Point",
        "coordinates":  [ 127.0051154,37.5009444 ]
     },
     "properties": {
     "no":5623,
     "name":"서울성모병원",
     "apt_id":1165010633,
     "dist":"1393.16552527818"
     }
   },
   {
     "type": "Feature",
     "geometry": {
        "type": "Point",
        "coordinates":  [ 127.0243422,37.5122594 ]
     },
     "properties": {
     "no":5624,
     "name":"새로운병원",
     "apt_id":1165010633,
     "dist":"1624.19360070162"
     }
   },
   {
     "type": "Feature",
     "geometry": {
        "type": "Point",
        "coordinates":  [ 127.0227848,37.5070301 ]
     },
     "properties": {
     "no":5625,
     "name":"고도일병원",
     "apt_id":1165010633,
     "dist":"1629.90761279945"
     }
   },
   {
     "type": "Feature",
     "geometry": {
        "type": "Point",
        "coordinates":  [ 127.0241884,37.51768 ]
     },
     "properties": {
     "no":5626,
     "name":"아이디병원",
     "apt_id":1165010617,
     "dist":"1442.89294910178"
     }
   },
   {
     "type": "Feature",
     "geometry": {
        "type": "Point",
        "coordinates":  [ 127.0243422,37.5122594 ]
     },
     "properties": {
     "no":5627,
     "name":"새로운병원",
     "apt_id":1165010617,
     "dist":"1551.8092040016"
     }
   },
   {
     "type": "Feature",
     "geometry": {
        "type": "Point",
        "coordinates":  [ 127.0227848,37.5070301 ]
     },
     "properties": {
     "no":5628,
     "name":"고도일병원",
     "apt_id":1165010617,
     "dist":"1677.4040014206"
     }
   },
   {
     "type": "Feature",
     "geometry": {
        "type": "Point",
        "coordinates":  [ 127.0043999,37.4862375 ]
     },
     "properties": {
     "no":5629,
     "name":"올바로병원",
     "apt_id":1165010138,
     "dist":"657.306280373474"
     }
   },
   {
     "type": "Feature",
     "geometry": {
        "type": "Point",
        "coordinates":  [ 126.995067,37.4878422 ]
     },
     "properties": {
     "no":5630,
     "name":"제일병원",
     "apt_id":1165010138,
     "dist":"1074.4726636807"
     }
   },
   {
     "type": "Feature",
     "geometry": {
        "type": "Point",
        "coordinates":  [ 127.0153417,37.4859524 ]
     },
     "properties": {
     "no":5631,
     "name":"세바른병원",
     "apt_id":1165010138,
     "dist":"1443.195798426"
     }
   },
   {
     "type": "Feature",
     "geometry": {
        "type": "Point",
        "coordinates":  [ 126.9899521,37.4930421 ]
     },
     "properties": {
     "no":5632,
     "name":"참푸른병원",
     "apt_id":1165010110,
     "dist":"669.950306538547"
     }
   },
   {
     "type": "Feature",
     "geometry": {
        "type": "Point",
        "coordinates":  [ 126.9805813,37.4843925 ]
     },
     "properties": {
     "no":5633,
     "name":"연세바른병원",
     "apt_id":1165010110,
     "dist":"697.089601149811"
     }
   },
   {
     "type": "Feature",
     "geometry": {
        "type": "Point",
        "coordinates":  [ 126.9814925,37.4825532 ]
     },
     "properties": {
     "no":5634,
     "name":"더본병원",
     "apt_id":1165010110,
     "dist":"834.687293997275"
     }
   },
   {
     "type": "Feature",
     "geometry": {
        "type": "Point",
        "coordinates":  [ 127.0387018,37.4799379 ]
     },
     "properties": {
     "no":5635,
     "name":"참포도나무병원",
     "apt_id":1165010314,
     "dist":"2679.01185682841"
     }
   },
   {
     "type": "Feature",
     "geometry": {
        "type": "Point",
        "coordinates":  [ 127.032598,37.483569 ]
     },
     "properties": {
     "no":5636,
     "name":"서초구보건소",
     "apt_id":1165010314,
     "dist":"2722.24192129723"
     }
   },
   {
     "type": "Feature",
     "geometry": {
        "type": "Point",
        "coordinates":  [ 127.0157273,37.4852908 ]
     },
     "properties": {
     "no":5637,
     "name":"21세기병원",
     "apt_id":1165010314,
     "dist":"2847.72365386472"
     }
   },
   {
     "type": "Feature",
     "geometry": {
        "type": "Point",
        "coordinates":  [ 127.033745,37.4899185 ]
     },
     "properties": {
     "no":5638,
     "name":"기쁨병원",
     "apt_id":1165010809,
     "dist":"726.809810852467"
     }
   },
   {
     "type": "Feature",
     "geometry": {
        "type": "Point",
        "coordinates":  [ 127.0361559,37.5015778 ]
     },
     "properties": {
     "no":5639,
     "name":"선한목자병원",
     "apt_id":1165010809,
     "dist":"1142.92834405549"
     }
   },
   {
     "type": "Feature",
     "geometry": {
        "type": "Point",
        "coordinates":  [ 127.032598,37.483569 ]
     },
     "properties": {
     "no":5640,
     "name":"서초구보건소",
     "apt_id":1165010809,
     "dist":"1156.71979276106"
     }
   },
   {
     "type": "Feature",
     "geometry": {
        "type": "Point",
        "coordinates":  [ 127.0689282,37.4557936 ]
     },
     "properties": {
     "no":5641,
     "name":"서울특별시어린이병원",
     "apt_id":1165011101,
     "dist":"1009.83262590376"
     }
   },
   {
     "type": "Feature",
     "geometry": {
        "type": "Point",
        "coordinates":  [ 127.0387018,37.4799379 ]
     },
     "properties": {
     "no":5642,
     "name":"참포도나무병원",
     "apt_id":1165011101,
     "dist":"3257.62261714658"
     }
   },
   {
     "type": "Feature",
     "geometry": {
        "type": "Point",
        "coordinates":  [ 127.0396045,37.4856196 ]
     },
     "properties": {
     "no":5643,
     "name":"강남베드로병원",
     "apt_id":1165011101,
     "dist":"3672.11967402372"
     }
   },
   {
     "type": "Feature",
     "geometry": {
        "type": "Point",
        "coordinates":  [ 127.0241884,37.51768 ]
     },
     "properties": {
     "no":5644,
     "name":"아이디병원",
     "apt_id":1165010610,
     "dist":"789.829584303067"
     }
   },
   {
     "type": "Feature",
     "geometry": {
        "type": "Point",
        "coordinates":  [ 127.0243422,37.5122594 ]
     },
     "properties": {
     "no":5645,
     "name":"새로운병원",
     "apt_id":1165010610,
     "dist":"1028.22817679762"
     }
   },
   {
     "type": "Feature",
     "geometry": {
        "type": "Point",
        "coordinates":  [ 127.0286438,37.5194124 ]
     },
     "properties": {
     "no":5646,
     "name":"강남을지대학교병원",
     "apt_id":1165010610,
     "dist":"1236.08534841343"
     }
   },
   {
     "type": "Feature",
     "geometry": {
        "type": "Point",
        "coordinates":  [ 127.0157273,37.4852908 ]
     },
     "properties": {
     "no":5647,
     "name":"21세기병원",
     "apt_id":1165010827,
     "dist":"289.968956763443"
     }
   },
   {
     "type": "Feature",
     "geometry": {
        "type": "Point",
        "coordinates":  [ 127.0153417,37.4859524 ]
     },
     "properties": {
     "no":5648,
     "name":"세바른병원",
     "apt_id":1165010827,
     "dist":"355.763651683011"
     }
   },
   {
     "type": "Feature",
     "geometry": {
        "type": "Point",
        "coordinates":  [ 127.0141365,37.4929843 ]
     },
     "properties": {
     "no":5649,
     "name":"365엠씨병원",
     "apt_id":1165010827,
     "dist":"991.991088927107"
     }
   },
   {
     "type": "Feature",
     "geometry": {
        "type": "Point",
        "coordinates":  [ 127.0241884,37.51768 ]
     },
     "properties": {
     "no":5650,
     "name":"아이디병원",
     "apt_id":1165010647,
     "dist":"1056.63771406244"
     }
   },
   {
     "type": "Feature",
     "geometry": {
        "type": "Point",
        "coordinates":  [ 127.0243422,37.5122594 ]
     },
     "properties": {
     "no":5651,
     "name":"새로운병원",
     "apt_id":1165010647,
     "dist":"1240.08844629015"
     }
   },
   {
     "type": "Feature",
     "geometry": {
        "type": "Point",
        "coordinates":  [ 127.0227848,37.5070301 ]
     },
     "properties": {
     "no":5652,
     "name":"고도일병원",
     "apt_id":1165010647,
     "dist":"1472.88033794433"
     }
   },
   {
     "type": "Feature",
     "geometry": {
        "type": "Point",
        "coordinates":  [ 127.0157273,37.4852908 ]
     },
     "properties": {
     "no":5653,
     "name":"21세기병원",
     "apt_id":1165010828,
     "dist":"140.806763979954"
     }
   },
   {
     "type": "Feature",
     "geometry": {
        "type": "Point",
        "coordinates":  [ 127.0153417,37.4859524 ]
     },
     "properties": {
     "no":5654,
     "name":"세바른병원",
     "apt_id":1165010828,
     "dist":"212.162248976434"
     }
   },
   {
     "type": "Feature",
     "geometry": {
        "type": "Point",
        "coordinates":  [ 127.0141365,37.4929843 ]
     },
     "properties": {
     "no":5655,
     "name":"365엠씨병원",
     "apt_id":1165010828,
     "dist":"896.163275704778"
     }
   },
   {
     "type": "Feature",
     "geometry": {
        "type": "Point",
        "coordinates":  [ 127.0153417,37.4859524 ]
     },
     "properties": {
     "no":5656,
     "name":"세바른병원",
     "apt_id":1165010858,
     "dist":"372.20602098742"
     }
   },
   {
     "type": "Feature",
     "geometry": {
        "type": "Point",
        "coordinates":  [ 127.0157273,37.4852908 ]
     },
     "properties": {
     "no":5657,
     "name":"21세기병원",
     "apt_id":1165010858,
     "dist":"429.243049986954"
     }
   },
   {
     "type": "Feature",
     "geometry": {
        "type": "Point",
        "coordinates":  [ 127.0141365,37.4929843 ]
     },
     "properties": {
     "no":5658,
     "name":"365엠씨병원",
     "apt_id":1165010858,
     "dist":"669.152203619808"
     }
   },
   {
     "type": "Feature",
     "geometry": {
        "type": "Point",
        "coordinates":  [ 127.0051154,37.5009444 ]
     },
     "properties": {
     "no":5659,
     "name":"서울성모병원",
     "apt_id":1165010718,
     "dist":"284.710277523013"
     }
   },
   {
     "type": "Feature",
     "geometry": {
        "type": "Point",
        "coordinates":  [ 127.0137857,37.4949979 ]
     },
     "properties": {
     "no":5660,
     "name":"염창환병원",
     "apt_id":1165010718,
     "dist":"991.758256904491"
     }
   },
   {
     "type": "Feature",
     "geometry": {
        "type": "Point",
        "coordinates":  [ 127.0141365,37.4929843 ]
     },
     "properties": {
     "no":5661,
     "name":"365엠씨병원",
     "apt_id":1165010718,
     "dist":"1174.81484576394"
     }
   },
   {
     "type": "Feature",
     "geometry": {
        "type": "Point",
        "coordinates":  [ 126.9805813,37.4843925 ]
     },
     "properties": {
     "no":5662,
     "name":"연세바른병원",
     "apt_id":1165010130,
     "dist":"402.733670859928"
     }
   },
   {
     "type": "Feature",
     "geometry": {
        "type": "Point",
        "coordinates":  [ 126.9814925,37.4825532 ]
     },
     "properties": {
     "no":5663,
     "name":"더본병원",
     "apt_id":1165010130,
     "dist":"443.176165526852"
     }
   },
   {
     "type": "Feature",
     "geometry": {
        "type": "Point",
        "coordinates":  [ 126.9899521,37.4930421 ]
     },
     "properties": {
     "no":5664,
     "name":"참푸른병원",
     "apt_id":1165010130,
     "dist":"918.456190803596"
     }
   },
   {
     "type": "Feature",
     "geometry": {
        "type": "Point",
        "coordinates":  [ 127.0241884,37.51768 ]
     },
     "properties": {
     "no":5665,
     "name":"아이디병원",
     "apt_id":1165010608,
     "dist":"983.632915394258"
     }
   },
   {
     "type": "Feature",
     "geometry": {
        "type": "Point",
        "coordinates":  [ 127.0243422,37.5122594 ]
     },
     "properties": {
     "no":5666,
     "name":"새로운병원",
     "apt_id":1165010608,
     "dist":"1310.63998308421"
     }
   },
   {
     "type": "Feature",
     "geometry": {
        "type": "Point",
        "coordinates":  [ 127.0286438,37.5194124 ]
     },
     "properties": {
     "no":5667,
     "name":"강남을지대학교병원",
     "apt_id":1165010608,
     "dist":"1371.50144938887"
     }
   },
   {
     "type": "Feature",
     "geometry": {
        "type": "Point",
        "coordinates":  [ 126.995067,37.4878422 ]
     },
     "properties": {
     "no":5668,
     "name":"제일병원",
     "apt_id":1165010134,
     "dist":"493.857451831407"
     }
   },
   {
     "type": "Feature",
     "geometry": {
        "type": "Point",
        "coordinates":  [ 127.0043999,37.4862375 ]
     },
     "properties": {
     "no":5669,
     "name":"올바로병원",
     "apt_id":1165010134,
     "dist":"632.206825260093"
     }
   },
   {
     "type": "Feature",
     "geometry": {
        "type": "Point",
        "coordinates":  [ 126.9899521,37.4930421 ]
     },
     "properties": {
     "no":5670,
     "name":"참푸른병원",
     "apt_id":1165010134,
     "dist":"1230.85852997355"
     }
   },
   {
     "type": "Feature",
     "geometry": {
        "type": "Point",
        "coordinates":  [ 126.9899521,37.4930421 ]
     },
     "properties": {
     "no":5671,
     "name":"참푸른병원",
     "apt_id":1165010123,
     "dist":"325.679801678549"
     }
   },
   {
     "type": "Feature",
     "geometry": {
        "type": "Point",
        "coordinates":  [ 126.995067,37.4878422 ]
     },
     "properties": {
     "no":5672,
     "name":"제일병원",
     "apt_id":1165010123,
     "dist":"1062.70727728956"
     }
   },
   {
     "type": "Feature",
     "geometry": {
        "type": "Point",
        "coordinates":  [ 126.9805813,37.4843925 ]
     },
     "properties": {
     "no":5673,
     "name":"연세바른병원",
     "apt_id":1165010123,
     "dist":"1318.3798410302"
     }
   },
   {
     "type": "Feature",
     "geometry": {
        "type": "Point",
        "coordinates":  [ 126.9899521,37.4930421 ]
     },
     "properties": {
     "no":5674,
     "name":"참푸른병원",
     "apt_id":1165010120,
     "dist":"666.840226027023"
     }
   },
   {
     "type": "Feature",
     "geometry": {
        "type": "Point",
        "coordinates":  [ 126.9805813,37.4843925 ]
     },
     "properties": {
     "no":5675,
     "name":"연세바른병원",
     "apt_id":1165010120,
     "dist":"1305.42852437687"
     }
   },
   {
     "type": "Feature",
     "geometry": {
        "type": "Point",
        "coordinates":  [ 126.995067,37.4878422 ]
     },
     "properties": {
     "no":5676,
     "name":"제일병원",
     "apt_id":1165010120,
     "dist":"1396.60660345572"
     }
   },
   {
     "type": "Feature",
     "geometry": {
        "type": "Point",
        "coordinates":  [ 127.0157273,37.4852908 ]
     },
     "properties": {
     "no":5677,
     "name":"21세기병원",
     "apt_id":1165010820,
     "dist":"790.475638959138"
     }
   },
   {
     "type": "Feature",
     "geometry": {
        "type": "Point",
        "coordinates":  [ 127.0153417,37.4859524 ]
     },
     "properties": {
     "no":5678,
     "name":"세바른병원",
     "apt_id":1165010820,
     "dist":"826.696489040647"
     }
   },
   {
     "type": "Feature",
     "geometry": {
        "type": "Point",
        "coordinates":  [ 127.032598,37.483569 ]
     },
     "properties": {
     "no":5679,
     "name":"서초구보건소",
     "apt_id":1165010820,
     "dist":"947.833539266446"
     }
   },
   {
     "type": "Feature",
     "geometry": {
        "type": "Point",
        "coordinates":  [ 127.032598,37.483569 ]
     },
     "properties": {
     "no":5680,
     "name":"서초구보건소",
     "apt_id":1165010301,
     "dist":"1401.03627758431"
     }
   },
   {
     "type": "Feature",
     "geometry": {
        "type": "Point",
        "coordinates":  [ 127.0157273,37.4852908 ]
     },
     "properties": {
     "no":5681,
     "name":"21세기병원",
     "apt_id":1165010301,
     "dist":"1457.1823841303"
     }
   },
   {
     "type": "Feature",
     "geometry": {
        "type": "Point",
        "coordinates":  [ 127.0153417,37.4859524 ]
     },
     "properties": {
     "no":5682,
     "name":"세바른병원",
     "apt_id":1165010301,
     "dist":"1534.50376181744"
     }
   },
   {
     "type": "Feature",
     "geometry": {
        "type": "Point",
        "coordinates":  [ 127.0051154,37.5009444 ]
     },
     "properties": {
     "no":5683,
     "name":"서울성모병원",
     "apt_id":1165010721,
     "dist":"461.348650477593"
     }
   },
   {
     "type": "Feature",
     "geometry": {
        "type": "Point",
        "coordinates":  [ 126.9899521,37.4930421 ]
     },
     "properties": {
     "no":5684,
     "name":"참푸른병원",
     "apt_id":1165010721,
     "dist":"1270.21560026417"
     }
   },
   {
     "type": "Feature",
     "geometry": {
        "type": "Point",
        "coordinates":  [ 126.995067,37.4878422 ]
     },
     "properties": {
     "no":5685,
     "name":"제일병원",
     "apt_id":1165010721,
     "dist":"1296.44117658788"
     }
   },
   {
     "type": "Feature",
     "geometry": {
        "type": "Point",
        "coordinates":  [ 126.9866983,37.4767222 ]
     },
     "properties": {
     "no":5686,
     "name":"연세사랑병원",
     "apt_id":1165010112,
     "dist":"442.757222953835"
     }
   },
   {
     "type": "Feature",
     "geometry": {
        "type": "Point",
        "coordinates":  [ 126.9878957,37.475653 ]
     },
     "properties": {
     "no":5687,
     "name":"대항병원",
     "apt_id":1165010112,
     "dist":"512.961765804112"
     }
   },
   {
     "type": "Feature",
     "geometry": {
        "type": "Point",
        "coordinates":  [ 126.9814925,37.4825532 ]
     },
     "properties": {
     "no":5688,
     "name":"더본병원",
     "apt_id":1165010112,
     "dist":"835.620632719004"
     }
   },
   {
     "type": "Feature",
     "geometry": {
        "type": "Point",
        "coordinates":  [ 127.032598,37.483569 ]
     },
     "properties": {
     "no":5689,
     "name":"서초구보건소",
     "apt_id":1165010302,
     "dist":"1519.82046314293"
     }
   },
   {
     "type": "Feature",
     "geometry": {
        "type": "Point",
        "coordinates":  [ 127.0157273,37.4852908 ]
     },
     "properties": {
     "no":5690,
     "name":"21세기병원",
     "apt_id":1165010302,
     "dist":"1621.17504862639"
     }
   },
   {
     "type": "Feature",
     "geometry": {
        "type": "Point",
        "coordinates":  [ 127.0153417,37.4859524 ]
     },
     "properties": {
     "no":5691,
     "name":"세바른병원",
     "apt_id":1165010302,
     "dist":"1698.55323082437"
     }
   },
   {
     "type": "Feature",
     "geometry": {
        "type": "Point",
        "coordinates":  [ 127.0051154,37.5009444 ]
     },
     "properties": {
     "no":5692,
     "name":"서울성모병원",
     "apt_id":1165010635,
     "dist":"1192.52472926026"
     }
   },
   {
     "type": "Feature",
     "geometry": {
        "type": "Point",
        "coordinates":  [ 127.0227848,37.5070301 ]
     },
     "properties": {
     "no":5693,
     "name":"고도일병원",
     "apt_id":1165010635,
     "dist":"1528.68231988352"
     }
   },
   {
     "type": "Feature",
     "geometry": {
        "type": "Point",
        "coordinates":  [ 127.0243422,37.5122594 ]
     },
     "properties": {
     "no":5694,
     "name":"새로운병원",
     "apt_id":1165010635,
     "dist":"1593.02952861358"
     }
   },
   {
     "type": "Feature",
     "geometry": {
        "type": "Point",
        "coordinates":  [ 127.0387018,37.4799379 ]
     },
     "properties": {
     "no":5695,
     "name":"참포도나무병원",
     "apt_id":1165010310,
     "dist":"2222.79483747773"
     }
   },
   {
     "type": "Feature",
     "geometry": {
        "type": "Point",
        "coordinates":  [ 127.032598,37.483569 ]
     },
     "properties": {
     "no":5696,
     "name":"서초구보건소",
     "apt_id":1165010310,
     "dist":"2308.44624234763"
     }
   },
   {
     "type": "Feature",
     "geometry": {
        "type": "Point",
        "coordinates":  [ 127.0351301,37.4849802 ]
     },
     "properties": {
     "no":5697,
     "name":"강남유나이티드병원",
     "apt_id":1165010310,
     "dist":"2520.95361163605"
     }
   },
   {
     "type": "Feature",
     "geometry": {
        "type": "Point",
        "coordinates":  [ 127.0153417,37.4859524 ]
     },
     "properties": {
     "no":5698,
     "name":"세바른병원",
     "apt_id":1165010840,
     "dist":"246.823555498895"
     }
   },
   {
     "type": "Feature",
     "geometry": {
        "type": "Point",
        "coordinates":  [ 127.0157273,37.4852908 ]
     },
     "properties": {
     "no":5699,
     "name":"21세기병원",
     "apt_id":1165010840,
     "dist":"306.964912263149"
     }
   },
   {
     "type": "Feature",
     "geometry": {
        "type": "Point",
        "coordinates":  [ 127.0141365,37.4929843 ]
     },
     "properties": {
     "no":5700,
     "name":"365엠씨병원",
     "apt_id":1165010840,
     "dist":"655.28884872647"
     }
   },
   {
     "type": "Feature",
     "geometry": {
        "type": "Point",
        "coordinates":  [ 126.9899521,37.4930421 ]
     },
     "properties": {
     "no":5701,
     "name":"참푸른병원",
     "apt_id":1165010118,
     "dist":"444.689944950337"
     }
   },
   {
     "type": "Feature",
     "geometry": {
        "type": "Point",
        "coordinates":  [ 126.995067,37.4878422 ]
     },
     "properties": {
     "no":5702,
     "name":"제일병원",
     "apt_id":1165010118,
     "dist":"1112.01593269769"
     }
   },
   {
     "type": "Feature",
     "geometry": {
        "type": "Point",
        "coordinates":  [ 127.0051154,37.5009444 ]
     },
     "properties": {
     "no":5703,
     "name":"서울성모병원",
     "apt_id":1165010118,
     "dist":"1600.31624829327"
     }
   },
   {
     "type": "Feature",
     "geometry": {
        "type": "Point",
        "coordinates":  [ 127.0043999,37.4862375 ]
     },
     "properties": {
     "no":5704,
     "name":"올바로병원",
     "apt_id":1165010103,
     "dist":"1020.15730384303"
     }
   },
   {
     "type": "Feature",
     "geometry": {
        "type": "Point",
        "coordinates":  [ 126.995067,37.4878422 ]
     },
     "properties": {
     "no":5705,
     "name":"제일병원",
     "apt_id":1165010103,
     "dist":"1398.55742072109"
     }
   },
   {
     "type": "Feature",
     "geometry": {
        "type": "Point",
        "coordinates":  [ 126.9878957,37.475653 ]
     },
     "properties": {
     "no":5706,
     "name":"대항병원",
     "apt_id":1165010103,
     "dist":"1495.99317605447"
     }
   },
   {
     "type": "Feature",
     "geometry": {
        "type": "Point",
        "coordinates":  [ 127.0043999,37.4862375 ]
     },
     "properties": {
     "no":5707,
     "name":"올바로병원",
     "apt_id":1165010104,
     "dist":"963.733796173517"
     }
   },
   {
     "type": "Feature",
     "geometry": {
        "type": "Point",
        "coordinates":  [ 126.995067,37.4878422 ]
     },
     "properties": {
     "no":5708,
     "name":"제일병원",
     "apt_id":1165010104,
     "dist":"1331.40162822146"
     }
   },
   {
     "type": "Feature",
     "geometry": {
        "type": "Point",
        "coordinates":  [ 126.9878957,37.475653 ]
     },
     "properties": {
     "no":5709,
     "name":"대항병원",
     "apt_id":1165010104,
     "dist":"1473.00488464933"
     }
   },
   {
     "type": "Feature",
     "geometry": {
        "type": "Point",
        "coordinates":  [ 126.9878957,37.475653 ]
     },
     "properties": {
     "no":5710,
     "name":"대항병원",
     "apt_id":1165010113,
     "dist":"481.483077591211"
     }
   },
   {
     "type": "Feature",
     "geometry": {
        "type": "Point",
        "coordinates":  [ 126.9866983,37.4767222 ]
     },
     "properties": {
     "no":5711,
     "name":"연세사랑병원",
     "apt_id":1165010113,
     "dist":"481.662257375554"
     }
   },
   {
     "type": "Feature",
     "geometry": {
        "type": "Point",
        "coordinates":  [ 126.9814925,37.4825532 ]
     },
     "properties": {
     "no":5712,
     "name":"더본병원",
     "apt_id":1165010113,
     "dist":"1033.74487941516"
     }
   },
   {
     "type": "Feature",
     "geometry": {
        "type": "Point",
        "coordinates":  [ 126.9878957,37.475653 ]
     },
     "properties": {
     "no":5713,
     "name":"대항병원",
     "apt_id":1165010117,
     "dist":"350.228836258515"
     }
   },
   {
     "type": "Feature",
     "geometry": {
        "type": "Point",
        "coordinates":  [ 126.9866983,37.4767222 ]
     },
     "properties": {
     "no":5714,
     "name":"연세사랑병원",
     "apt_id":1165010117,
     "dist":"499.10902909608"
     }
   },
   {
     "type": "Feature",
     "geometry": {
        "type": "Point",
        "coordinates":  [ 126.9814925,37.4825532 ]
     },
     "properties": {
     "no":5715,
     "name":"더본병원",
     "apt_id":1165010117,
     "dist":"1258.00556800052"
     }
   },
   {
     "type": "Feature",
     "geometry": {
        "type": "Point",
        "coordinates":  [ 126.9878957,37.475653 ]
     },
     "properties": {
     "no":5716,
     "name":"대항병원",
     "apt_id":1165010108,
     "dist":"718.122228992747"
     }
   },
   {
     "type": "Feature",
     "geometry": {
        "type": "Point",
        "coordinates":  [ 126.9866983,37.4767222 ]
     },
     "properties": {
     "no":5717,
     "name":"연세사랑병원",
     "apt_id":1165010108,
     "dist":"770.078949198979"
     }
   },
   {
     "type": "Feature",
     "geometry": {
        "type": "Point",
        "coordinates":  [ 126.995067,37.4878422 ]
     },
     "properties": {
     "no":5718,
     "name":"제일병원",
     "apt_id":1165010108,
     "dist":"825.818588330092"
     }
   },
   {
     "type": "Feature",
     "geometry": {
        "type": "Point",
        "coordinates":  [ 127.0043999,37.4862375 ]
     },
     "properties": {
     "no":5719,
     "name":"올바로병원",
     "apt_id":1165010105,
     "dist":"745.751775336968"
     }
   },
   {
     "type": "Feature",
     "geometry": {
        "type": "Point",
        "coordinates":  [ 126.995067,37.4878422 ]
     },
     "properties": {
     "no":5720,
     "name":"제일병원",
     "apt_id":1165010105,
     "dist":"1066.59614229837"
     }
   },
   {
     "type": "Feature",
     "geometry": {
        "type": "Point",
        "coordinates":  [ 126.9878957,37.475653 ]
     },
     "properties": {
     "no":5721,
     "name":"대항병원",
     "apt_id":1165010105,
     "dist":"1425.60813404737"
     }
   },
   {
     "type": "Feature",
     "geometry": {
        "type": "Point",
        "coordinates":  [ 127.0043999,37.4862375 ]
     },
     "properties": {
     "no":5722,
     "name":"올바로병원",
     "apt_id":1165010139,
     "dist":"589.465535188605"
     }
   },
   {
     "type": "Feature",
     "geometry": {
        "type": "Point",
        "coordinates":  [ 126.995067,37.4878422 ]
     },
     "properties": {
     "no":5723,
     "name":"제일병원",
     "apt_id":1165010139,
     "dist":"918.333983385159"
     }
   },
   {
     "type": "Feature",
     "geometry": {
        "type": "Point",
        "coordinates":  [ 126.9878957,37.475653 ]
     },
     "properties": {
     "no":5724,
     "name":"대항병원",
     "apt_id":1165010139,
     "dist":"1472.54754506186"
     }
   },
   {
     "type": "Feature",
     "geometry": {
        "type": "Point",
        "coordinates":  [ 127.0387018,37.4799379 ]
     },
     "properties": {
     "no":5725,
     "name":"참포도나무병원",
     "apt_id":1165010308,
     "dist":"2062.55185758482"
     }
   },
   {
     "type": "Feature",
     "geometry": {
        "type": "Point",
        "coordinates":  [ 127.032598,37.483569 ]
     },
     "properties": {
     "no":5726,
     "name":"서초구보건소",
     "apt_id":1165010308,
     "dist":"2104.11093986068"
     }
   },
   {
     "type": "Feature",
     "geometry": {
        "type": "Point",
        "coordinates":  [ 127.0351301,37.4849802 ]
     },
     "properties": {
     "no":5727,
     "name":"강남유나이티드병원",
     "apt_id":1165010308,
     "dist":"2326.00298217783"
     }
   },
   {
     "type": "Feature",
     "geometry": {
        "type": "Point",
        "coordinates":  [ 127.0227848,37.5070301 ]
     },
     "properties": {
     "no":5728,
     "name":"고도일병원",
     "apt_id":1165010623,
     "dist":"980.148148778225"
     }
   },
   {
     "type": "Feature",
     "geometry": {
        "type": "Point",
        "coordinates":  [ 127.0243422,37.5122594 ]
     },
     "properties": {
     "no":5729,
     "name":"새로운병원",
     "apt_id":1165010623,
     "dist":"1098.84268740473"
     }
   },
   {
     "type": "Feature",
     "geometry": {
        "type": "Point",
        "coordinates":  [ 127.0051154,37.5009444 ]
     },
     "properties": {
     "no":5730,
     "name":"서울성모병원",
     "apt_id":1165010623,
     "dist":"1278.51186732853"
     }
   },
   {
     "type": "Feature",
     "geometry": {
        "type": "Point",
        "coordinates":  [ 127.0689282,37.4557936 ]
     },
     "properties": {
     "no":5731,
     "name":"서울특별시어린이병원",
     "apt_id":1165011103,
     "dist":"1408.10314014683"
     }
   },
   {
     "type": "Feature",
     "geometry": {
        "type": "Point",
        "coordinates":  [ 127.0387018,37.4799379 ]
     },
     "properties": {
     "no":5732,
     "name":"참포도나무병원",
     "apt_id":1165011103,
     "dist":"3649.27311558056"
     }
   },
   {
     "type": "Feature",
     "geometry": {
        "type": "Point",
        "coordinates":  [ 127.0396045,37.4856196 ]
     },
     "properties": {
     "no":5733,
     "name":"강남베드로병원",
     "apt_id":1165011103,
     "dist":"4115.64137386817"
     }
   },
   {
     "type": "Feature",
     "geometry": {
        "type": "Point",
        "coordinates":  [ 127.0051154,37.5009444 ]
     },
     "properties": {
     "no":5734,
     "name":"서울성모병원",
     "apt_id":1165010639,
     "dist":"1094.5458975647"
     }
   },
   {
     "type": "Feature",
     "geometry": {
        "type": "Point",
        "coordinates":  [ 127.0227848,37.5070301 ]
     },
     "properties": {
     "no":5735,
     "name":"고도일병원",
     "apt_id":1165010639,
     "dist":"1757.68555381635"
     }
   },
   {
     "type": "Feature",
     "geometry": {
        "type": "Point",
        "coordinates":  [ 127.0243422,37.5122594 ]
     },
     "properties": {
     "no":5736,
     "name":"새로운병원",
     "apt_id":1165010639,
     "dist":"1850.23660532685"
     }
   },
   {
     "type": "Feature",
     "geometry": {
        "type": "Point",
        "coordinates":  [ 127.0137857,37.4949979 ]
     },
     "properties": {
     "no":5737,
     "name":"염창환병원",
     "apt_id":1165010848,
     "dist":"631.795542073959"
     }
   },
   {
     "type": "Feature",
     "geometry": {
        "type": "Point",
        "coordinates":  [ 127.0141365,37.4929843 ]
     },
     "properties": {
     "no":5738,
     "name":"365엠씨병원",
     "apt_id":1165010848,
     "dist":"691.2946419474"
     }
   },
   {
     "type": "Feature",
     "geometry": {
        "type": "Point",
        "coordinates":  [ 127.0227848,37.5070301 ]
     },
     "properties": {
     "no":5739,
     "name":"고도일병원",
     "apt_id":1165010848,
     "dist":"1067.75145123661"
     }
   },
   {
     "type": "Feature",
     "geometry": {
        "type": "Point",
        "coordinates":  [ 127.0141365,37.4929843 ]
     },
     "properties": {
     "no":5740,
     "name":"365엠씨병원",
     "apt_id":1165010844,
     "dist":"664.942643382523"
     }
   },
   {
     "type": "Feature",
     "geometry": {
        "type": "Point",
        "coordinates":  [ 127.0137857,37.4949979 ]
     },
     "properties": {
     "no":5741,
     "name":"염창환병원",
     "apt_id":1165010844,
     "dist":"729.889572089638"
     }
   },
   {
     "type": "Feature",
     "geometry": {
        "type": "Point",
        "coordinates":  [ 127.0153417,37.4859524 ]
     },
     "properties": {
     "no":5742,
     "name":"세바른병원",
     "apt_id":1165010844,
     "dist":"892.825634487874"
     }
   },
   {
     "type": "Feature",
     "geometry": {
        "type": "Point",
        "coordinates":  [ 127.0227848,37.5070301 ]
     },
     "properties": {
     "no":5743,
     "name":"고도일병원",
     "apt_id":1165010724,
     "dist":"767.127838692048"
     }
   },
   {
     "type": "Feature",
     "geometry": {
        "type": "Point",
        "coordinates":  [ 127.0137857,37.4949979 ]
     },
     "properties": {
     "no":5744,
     "name":"염창환병원",
     "apt_id":1165010724,
     "dist":"872.965948039615"
     }
   },
   {
     "type": "Feature",
     "geometry": {
        "type": "Point",
        "coordinates":  [ 127.0141365,37.4929843 ]
     },
     "properties": {
     "no":5745,
     "name":"365엠씨병원",
     "apt_id":1165010724,
     "dist":"1062.56846762853"
     }
   },
   {
     "type": "Feature",
     "geometry": {
        "type": "Point",
        "coordinates":  [ 127.0243422,37.5122594 ]
     },
     "properties": {
     "no":5746,
     "name":"새로운병원",
     "apt_id":1165010632,
     "dist":"1441.74591176289"
     }
   },
   {
     "type": "Feature",
     "geometry": {
        "type": "Point",
        "coordinates":  [ 127.0051154,37.5009444 ]
     },
     "properties": {
     "no":5747,
     "name":"서울성모병원",
     "apt_id":1165010632,
     "dist":"1446.97743027104"
     }
   },
   {
     "type": "Feature",
     "geometry": {
        "type": "Point",
        "coordinates":  [ 127.0241884,37.51768 ]
     },
     "properties": {
     "no":5748,
     "name":"아이디병원",
     "apt_id":1165010632,
     "dist":"1451.28481163866"
     }
   },
   {
     "type": "Feature",
     "geometry": {
        "type": "Point",
        "coordinates":  [ 127.0141365,37.4929843 ]
     },
     "properties": {
     "no":5749,
     "name":"365엠씨병원",
     "apt_id":1165010845,
     "dist":"620.126987880425"
     }
   },
   {
     "type": "Feature",
     "geometry": {
        "type": "Point",
        "coordinates":  [ 127.0153417,37.4859524 ]
     },
     "properties": {
     "no":5750,
     "name":"세바른병원",
     "apt_id":1165010845,
     "dist":"692.274113885781"
     }
   },
   {
     "type": "Feature",
     "geometry": {
        "type": "Point",
        "coordinates":  [ 127.0157273,37.4852908 ]
     },
     "properties": {
     "no":5751,
     "name":"21세기병원",
     "apt_id":1165010845,
     "dist":"719.315784404249"
     }
   },
   {
     "type": "Feature",
     "geometry": {
        "type": "Point",
        "coordinates":  [ 127.0227848,37.5070301 ]
     },
     "properties": {
     "no":5752,
     "name":"고도일병원",
     "apt_id":1165010625,
     "dist":"1025.89122874387"
     }
   },
   {
     "type": "Feature",
     "geometry": {
        "type": "Point",
        "coordinates":  [ 127.0051154,37.5009444 ]
     },
     "properties": {
     "no":5753,
     "name":"서울성모병원",
     "apt_id":1165010625,
     "dist":"1132.2966978401"
     }
   },
   {
     "type": "Feature",
     "geometry": {
        "type": "Point",
        "coordinates":  [ 127.0243422,37.5122594 ]
     },
     "properties": {
     "no":5754,
     "name":"새로운병원",
     "apt_id":1165010625,
     "dist":"1206.4740933455"
     }
   },
   {
     "type": "Feature",
     "geometry": {
        "type": "Point",
        "coordinates":  [ 127.0157273,37.4852908 ]
     },
     "properties": {
     "no":5755,
     "name":"21세기병원",
     "apt_id":1165010830,
     "dist":"341.714844662494"
     }
   },
   {
     "type": "Feature",
     "geometry": {
        "type": "Point",
        "coordinates":  [ 127.0153417,37.4859524 ]
     },
     "properties": {
     "no":5756,
     "name":"세바른병원",
     "apt_id":1165010830,
     "dist":"381.936025839391"
     }
   },
   {
     "type": "Feature",
     "geometry": {
        "type": "Point",
        "coordinates":  [ 127.0043999,37.4862375 ]
     },
     "properties": {
     "no":5757,
     "name":"올바로병원",
     "apt_id":1165010830,
     "dist":"1026.98160425434"
     }
   },
   {
     "type": "Feature",
     "geometry": {
        "type": "Point",
        "coordinates":  [ 127.0051154,37.5009444 ]
     },
     "properties": {
     "no":5758,
     "name":"서울성모병원",
     "apt_id":1165010634,
     "dist":"1314.78233505965"
     }
   },
   {
     "type": "Feature",
     "geometry": {
        "type": "Point",
        "coordinates":  [ 127.0227848,37.5070301 ]
     },
     "properties": {
     "no":5759,
     "name":"고도일병원",
     "apt_id":1165010634,
     "dist":"1530.65094142368"
     }
   },
   {
     "type": "Feature",
     "geometry": {
        "type": "Point",
        "coordinates":  [ 127.0243422,37.5122594 ]
     },
     "properties": {
     "no":5760,
     "name":"새로운병원",
     "apt_id":1165010634,
     "dist":"1552.1217231926"
     }
   },
   {
     "type": "Feature",
     "geometry": {
        "type": "Point",
        "coordinates":  [ 127.0051154,37.5009444 ]
     },
     "properties": {
     "no":5761,
     "name":"서울성모병원",
     "apt_id":1165010627,
     "dist":"1077.70519277962"
     }
   },
   {
     "type": "Feature",
     "geometry": {
        "type": "Point",
        "coordinates":  [ 127.0227848,37.5070301 ]
     },
     "properties": {
     "no":5762,
     "name":"고도일병원",
     "apt_id":1165010627,
     "dist":"1170.4654099052"
     }
   },
   {
     "type": "Feature",
     "geometry": {
        "type": "Point",
        "coordinates":  [ 127.0243422,37.5122594 ]
     },
     "properties": {
     "no":5763,
     "name":"새로운병원",
     "apt_id":1165010627,
     "dist":"1330.03623091195"
     }
   },
   {
     "type": "Feature",
     "geometry": {
        "type": "Point",
        "coordinates":  [ 127.032598,37.483569 ]
     },
     "properties": {
     "no":5764,
     "name":"서초구보건소",
     "apt_id":1165010304,
     "dist":"1217.88759534363"
     }
   },
   {
     "type": "Feature",
     "geometry": {
        "type": "Point",
        "coordinates":  [ 127.0387018,37.4799379 ]
     },
     "properties": {
     "no":5765,
     "name":"참포도나무병원",
     "apt_id":1165010304,
     "dist":"1341.44120289343"
     }
   },
   {
     "type": "Feature",
     "geometry": {
        "type": "Point",
        "coordinates":  [ 127.0351301,37.4849802 ]
     },
     "properties": {
     "no":5766,
     "name":"강남유나이티드병원",
     "apt_id":1165010304,
     "dist":"1463.37352983935"
     }
   },
   {
     "type": "Feature",
     "geometry": {
        "type": "Point",
        "coordinates":  [ 127.032598,37.483569 ]
     },
     "properties": {
     "no":5767,
     "name":"서초구보건소",
     "apt_id":1165010303,
     "dist":"1389.34475181942"
     }
   },
   {
     "type": "Feature",
     "geometry": {
        "type": "Point",
        "coordinates":  [ 127.0387018,37.4799379 ]
     },
     "properties": {
     "no":5768,
     "name":"참포도나무병원",
     "apt_id":1165010303,
     "dist":"1558.59271763864"
     }
   },
   {
     "type": "Feature",
     "geometry": {
        "type": "Point",
        "coordinates":  [ 127.0351301,37.4849802 ]
     },
     "properties": {
     "no":5769,
     "name":"강남유나이티드병원",
     "apt_id":1165010303,
     "dist":"1648.26526756761"
     }
   },
   {
     "type": "Feature",
     "geometry": {
        "type": "Point",
        "coordinates":  [ 127.0051154,37.5009444 ]
     },
     "properties": {
     "no":5770,
     "name":"서울성모병원",
     "apt_id":1165010640,
     "dist":"1018.54943201176"
     }
   },
   {
     "type": "Feature",
     "geometry": {
        "type": "Point",
        "coordinates":  [ 127.0227848,37.5070301 ]
     },
     "properties": {
     "no":5771,
     "name":"고도일병원",
     "apt_id":1165010640,
     "dist":"1736.48216999765"
     }
   },
   {
     "type": "Feature",
     "geometry": {
        "type": "Point",
        "coordinates":  [ 127.0137857,37.4949979 ]
     },
     "properties": {
     "no":5772,
     "name":"염창환병원",
     "apt_id":1165010640,
     "dist":"1793.73072203503"
     }
   },
   {
     "type": "Feature",
     "geometry": {
        "type": "Point",
        "coordinates":  [ 127.0043999,37.4862375 ]
     },
     "properties": {
     "no":5773,
     "name":"올바로병원",
     "apt_id":1165010833,
     "dist":"571.834797812637"
     }
   },
   {
     "type": "Feature",
     "geometry": {
        "type": "Point",
        "coordinates":  [ 127.0153417,37.4859524 ]
     },
     "properties": {
     "no":5774,
     "name":"세바른병원",
     "apt_id":1165010833,
     "dist":"976.231265397103"
     }
   },
   {
     "type": "Feature",
     "geometry": {
        "type": "Point",
        "coordinates":  [ 127.0157273,37.4852908 ]
     },
     "properties": {
     "no":5775,
     "name":"21세기병원",
     "apt_id":1165010833,
     "dist":"980.153419292822"
     }
   },
   {
     "type": "Feature",
     "geometry": {
        "type": "Point",
        "coordinates":  [ 127.0051154,37.5009444 ]
     },
     "properties": {
     "no":5776,
     "name":"서울성모병원",
     "apt_id":1165010641,
     "dist":"1006.44268303984"
     }
   },
   {
     "type": "Feature",
     "geometry": {
        "type": "Point",
        "coordinates":  [ 127.0227848,37.5070301 ]
     },
     "properties": {
     "no":5777,
     "name":"고도일병원",
     "apt_id":1165010641,
     "dist":"1692.27470847628"
     }
   },
   {
     "type": "Feature",
     "geometry": {
        "type": "Point",
        "coordinates":  [ 127.0137857,37.4949979 ]
     },
     "properties": {
     "no":5778,
     "name":"염창환병원",
     "apt_id":1165010641,
     "dist":"1760.67032744896"
     }
   },
   {
     "type": "Feature",
     "geometry": {
        "type": "Point",
        "coordinates":  [ 127.0141365,37.4929843 ]
     },
     "properties": {
     "no":5779,
     "name":"365엠씨병원",
     "apt_id":1165010846,
     "dist":"147.831544814667"
     }
   },
   {
     "type": "Feature",
     "geometry": {
        "type": "Point",
        "coordinates":  [ 127.0137857,37.4949979 ]
     },
     "properties": {
     "no":5780,
     "name":"염창환병원",
     "apt_id":1165010846,
     "dist":"234.222780716512"
     }
   },
   {
     "type": "Feature",
     "geometry": {
        "type": "Point",
        "coordinates":  [ 127.0153417,37.4859524 ]
     },
     "properties": {
     "no":5781,
     "name":"세바른병원",
     "apt_id":1165010846,
     "dist":"758.834368517707"
     }
   },
   {
     "type": "Feature",
     "geometry": {
        "type": "Point",
        "coordinates":  [ 127.0241884,37.51768 ]
     },
     "properties": {
     "no":5782,
     "name":"아이디병원",
     "apt_id":1165010609,
     "dist":"822.744387733051"
     }
   },
   {
     "type": "Feature",
     "geometry": {
        "type": "Point",
        "coordinates":  [ 127.0243422,37.5122594 ]
     },
     "properties": {
     "no":5783,
     "name":"새로운병원",
     "apt_id":1165010609,
     "dist":"1139.57408868676"
     }
   },
   {
     "type": "Feature",
     "geometry": {
        "type": "Point",
        "coordinates":  [ 127.0286438,37.5194124 ]
     },
     "properties": {
     "no":5784,
     "name":"강남을지대학교병원",
     "apt_id":1165010609,
     "dist":"1230.67057519133"
     }
   },
   {
     "type": "Feature",
     "geometry": {
        "type": "Point",
        "coordinates":  [ 127.0153417,37.4859524 ]
     },
     "properties": {
     "no":5785,
     "name":"세바른병원",
     "apt_id":1165010841,
     "dist":"208.58163373733"
     }
   },
   {
     "type": "Feature",
     "geometry": {
        "type": "Point",
        "coordinates":  [ 127.0157273,37.4852908 ]
     },
     "properties": {
     "no":5786,
     "name":"21세기병원",
     "apt_id":1165010841,
     "dist":"243.311522840359"
     }
   },
   {
     "type": "Feature",
     "geometry": {
        "type": "Point",
        "coordinates":  [ 127.0141365,37.4929843 ]
     },
     "properties": {
     "no":5787,
     "name":"365엠씨병원",
     "apt_id":1165010841,
     "dist":"614.840570050061"
     }
   },
   {
     "type": "Feature",
     "geometry": {
        "type": "Point",
        "coordinates":  [ 127.033745,37.4899185 ]
     },
     "properties": {
     "no":5788,
     "name":"기쁨병원",
     "apt_id":1165010817,
     "dist":"448.18266877193"
     }
   },
   {
     "type": "Feature",
     "geometry": {
        "type": "Point",
        "coordinates":  [ 127.032598,37.483569 ]
     },
     "properties": {
     "no":5789,
     "name":"서초구보건소",
     "apt_id":1165010817,
     "dist":"814.239773204482"
     }
   },
   {
     "type": "Feature",
     "geometry": {
        "type": "Point",
        "coordinates":  [ 127.0351301,37.4849802 ]
     },
     "properties": {
     "no":5790,
     "name":"강남유나이티드병원",
     "apt_id":1165010817,
     "dist":"835.764510483297"
     }
   },
   {
     "type": "Feature",
     "geometry": {
        "type": "Point",
        "coordinates":  [ 127.0241884,37.51768 ]
     },
     "properties": {
     "no":5791,
     "name":"아이디병원",
     "apt_id":1165010616,
     "dist":"1074.6729807061"
     }
   },
   {
     "type": "Feature",
     "geometry": {
        "type": "Point",
        "coordinates":  [ 127.0243422,37.5122594 ]
     },
     "properties": {
     "no":5792,
     "name":"새로운병원",
     "apt_id":1165010616,
     "dist":"1127.45707974515"
     }
   },
   {
     "type": "Feature",
     "geometry": {
        "type": "Point",
        "coordinates":  [ 127.0227848,37.5070301 ]
     },
     "properties": {
     "no":5793,
     "name":"고도일병원",
     "apt_id":1165010616,
     "dist":"1267.8504556098"
     }
   },
   {
     "type": "Feature",
     "geometry": {
        "type": "Point",
        "coordinates":  [ 127.0241884,37.51768 ]
     },
     "properties": {
     "no":5794,
     "name":"아이디병원",
     "apt_id":1165010620,
     "dist":"1057.18701861259"
     }
   },
   {
     "type": "Feature",
     "geometry": {
        "type": "Point",
        "coordinates":  [ 127.0243422,37.5122594 ]
     },
     "properties": {
     "no":5795,
     "name":"새로운병원",
     "apt_id":1165010620,
     "dist":"1058.86946004441"
     }
   },
   {
     "type": "Feature",
     "geometry": {
        "type": "Point",
        "coordinates":  [ 127.0227848,37.5070301 ]
     },
     "properties": {
     "no":5796,
     "name":"고도일병원",
     "apt_id":1165010620,
     "dist":"1167.65541082167"
     }
   },
   {
     "type": "Feature",
     "geometry": {
        "type": "Point",
        "coordinates":  [ 127.033745,37.4899185 ]
     },
     "properties": {
     "no":5797,
     "name":"기쁨병원",
     "apt_id":1165010807,
     "dist":"940.342248667066"
     }
   },
   {
     "type": "Feature",
     "geometry": {
        "type": "Point",
        "coordinates":  [ 127.0141365,37.4929843 ]
     },
     "properties": {
     "no":5798,
     "name":"365엠씨병원",
     "apt_id":1165010807,
     "dist":"1198.45442486766"
     }
   },
   {
     "type": "Feature",
     "geometry": {
        "type": "Point",
        "coordinates":  [ 127.0137857,37.4949979 ]
     },
     "properties": {
     "no":5799,
     "name":"염창환병원",
     "apt_id":1165010807,
     "dist":"1219.15922348491"
     }
   },
   {
     "type": "Feature",
     "geometry": {
        "type": "Point",
        "coordinates":  [ 127.032598,37.483569 ]
     },
     "properties": {
     "no":5800,
     "name":"서초구보건소",
     "apt_id":1165010309,
     "dist":"2382.62478766865"
     }
   },
   {
     "type": "Feature",
     "geometry": {
        "type": "Point",
        "coordinates":  [ 127.0387018,37.4799379 ]
     },
     "properties": {
     "no":5801,
     "name":"참포도나무병원",
     "apt_id":1165010309,
     "dist":"2397.28023622196"
     }
   },
   {
     "type": "Feature",
     "geometry": {
        "type": "Point",
        "coordinates":  [ 127.0157273,37.4852908 ]
     },
     "properties": {
     "no":5802,
     "name":"21세기병원",
     "apt_id":1165010309,
     "dist":"2483.02073258849"
     }
   },
   {
     "type": "Feature",
     "geometry": {
        "type": "Point",
        "coordinates":  [ 127.0241884,37.51768 ]
     },
     "properties": {
     "no":5803,
     "name":"아이디병원",
     "apt_id":1165010618,
     "dist":"1476.23914249714"
     }
   },
   {
     "type": "Feature",
     "geometry": {
        "type": "Point",
        "coordinates":  [ 127.0243422,37.5122594 ]
     },
     "properties": {
     "no":5804,
     "name":"새로운병원",
     "apt_id":1165010618,
     "dist":"1527.53934692797"
     }
   },
   {
     "type": "Feature",
     "geometry": {
        "type": "Point",
        "coordinates":  [ 127.0051154,37.5009444 ]
     },
     "properties": {
     "no":5805,
     "name":"서울성모병원",
     "apt_id":1165010618,
     "dist":"1584.73736684426"
     }
   },
   {
     "type": "Feature",
     "geometry": {
        "type": "Point",
        "coordinates":  [ 127.0137857,37.4949979 ]
     },
     "properties": {
     "no":5806,
     "name":"염창환병원",
     "apt_id":1165010850,
     "dist":"632.284090000799"
     }
   },
   {
     "type": "Feature",
     "geometry": {
        "type": "Point",
        "coordinates":  [ 127.0141365,37.4929843 ]
     },
     "properties": {
     "no":5807,
     "name":"365엠씨병원",
     "apt_id":1165010850,
     "dist":"792.840292118823"
     }
   },
   {
     "type": "Feature",
     "geometry": {
        "type": "Point",
        "coordinates":  [ 127.0227848,37.5070301 ]
     },
     "properties": {
     "no":5808,
     "name":"고도일병원",
     "apt_id":1165010850,
     "dist":"886.723591891315"
     }
   },
   {
     "type": "Feature",
     "geometry": {
        "type": "Point",
        "coordinates":  [ 127.0227848,37.5070301 ]
     },
     "properties": {
     "no":5809,
     "name":"고도일병원",
     "apt_id":1165010805,
     "dist":"917.089016115775"
     }
   },
   {
     "type": "Feature",
     "geometry": {
        "type": "Point",
        "coordinates":  [ 127.0137857,37.4949979 ]
     },
     "properties": {
     "no":5810,
     "name":"염창환병원",
     "apt_id":1165010805,
     "dist":"1121.77893131174"
     }
   },
   {
     "type": "Feature",
     "geometry": {
        "type": "Point",
        "coordinates":  [ 127.0141365,37.4929843 ]
     },
     "properties": {
     "no":5811,
     "name":"365엠씨병원",
     "apt_id":1165010805,
     "dist":"1162.989065169"
     }
   },
   {
     "type": "Feature",
     "geometry": {
        "type": "Point",
        "coordinates":  [ 127.033745,37.4899185 ]
     },
     "properties": {
     "no":5812,
     "name":"기쁨병원",
     "apt_id":1165010815,
     "dist":"403.692796856964"
     }
   },
   {
     "type": "Feature",
     "geometry": {
        "type": "Point",
        "coordinates":  [ 127.0351301,37.4849802 ]
     },
     "properties": {
     "no":5813,
     "name":"강남유나이티드병원",
     "apt_id":1165010815,
     "dist":"838.829088067263"
     }
   },
   {
     "type": "Feature",
     "geometry": {
        "type": "Point",
        "coordinates":  [ 127.032598,37.483569 ]
     },
     "properties": {
     "no":5814,
     "name":"서초구보건소",
     "apt_id":1165010815,
     "dist":"849.230693849694"
     }
   },
   {
     "type": "Feature",
     "geometry": {
        "type": "Point",
        "coordinates":  [ 127.0689282,37.4557936 ]
     },
     "properties": {
     "no":5815,
     "name":"서울특별시어린이병원",
     "apt_id":1165011105,
     "dist":"1140.00284697052"
     }
   },
   {
     "type": "Feature",
     "geometry": {
        "type": "Point",
        "coordinates":  [ 127.0387018,37.4799379 ]
     },
     "properties": {
     "no":5816,
     "name":"참포도나무병원",
     "apt_id":1165011105,
     "dist":"3062.83989151811"
     }
   },
   {
     "type": "Feature",
     "geometry": {
        "type": "Point",
        "coordinates":  [ 127.0396045,37.4856196 ]
     },
     "properties": {
     "no":5817,
     "name":"강남베드로병원",
     "apt_id":1165011105,
     "dist":"3480.49569170681"
     }
   },
   {
     "type": "Feature",
     "geometry": {
        "type": "Point",
        "coordinates":  [ 127.0141365,37.4929843 ]
     },
     "properties": {
     "no":5818,
     "name":"365엠씨병원",
     "apt_id":1165010843,
     "dist":"539.394132731909"
     }
   },
   {
     "type": "Feature",
     "geometry": {
        "type": "Point",
        "coordinates":  [ 127.0137857,37.4949979 ]
     },
     "properties": {
     "no":5819,
     "name":"염창환병원",
     "apt_id":1165010843,
     "dist":"603.167083345968"
     }
   },
   {
     "type": "Feature",
     "geometry": {
        "type": "Point",
        "coordinates":  [ 127.0153417,37.4859524 ]
     },
     "properties": {
     "no":5820,
     "name":"세바른병원",
     "apt_id":1165010843,
     "dist":"841.029581633173"
     }
   },
   {
     "type": "Feature",
     "geometry": {
        "type": "Point",
        "coordinates":  [ 127.0051154,37.5009444 ]
     },
     "properties": {
     "no":5821,
     "name":"서울성모병원",
     "apt_id":1165010701,
     "dist":"981.424790051187"
     }
   },
   {
     "type": "Feature",
     "geometry": {
        "type": "Point",
        "coordinates":  [ 126.9899521,37.4930421 ]
     },
     "properties": {
     "no":5822,
     "name":"참푸른병원",
     "apt_id":1165010701,
     "dist":"1234.38577469545"
     }
   },
   {
     "type": "Feature",
     "geometry": {
        "type": "Point",
        "coordinates":  [ 126.995067,37.4878422 ]
     },
     "properties": {
     "no":5823,
     "name":"제일병원",
     "apt_id":1165010701,
     "dist":"1609.93705699551"
     }
   },
   {
     "type": "Feature",
     "geometry": {
        "type": "Point",
        "coordinates":  [ 127.032598,37.483569 ]
     },
     "properties": {
     "no":5824,
     "name":"서초구보건소",
     "apt_id":1165010819,
     "dist":"541.051582802488"
     }
   },
   {
     "type": "Feature",
     "geometry": {
        "type": "Point",
        "coordinates":  [ 127.033745,37.4899185 ]
     },
     "properties": {
     "no":5825,
     "name":"기쁨병원",
     "apt_id":1165010819,
     "dist":"631.457751126531"
     }
   },
   {
     "type": "Feature",
     "geometry": {
        "type": "Point",
        "coordinates":  [ 127.0351301,37.4849802 ]
     },
     "properties": {
     "no":5826,
     "name":"강남유나이티드병원",
     "apt_id":1165010819,
     "dist":"711.433126319675"
     }
   },
   {
     "type": "Feature",
     "geometry": {
        "type": "Point",
        "coordinates":  [ 126.995067,37.4878422 ]
     },
     "properties": {
     "no":5827,
     "name":"제일병원",
     "apt_id":1165010135,
     "dist":"468.3366427549"
     }
   },
   {
     "type": "Feature",
     "geometry": {
        "type": "Point",
        "coordinates":  [ 127.0043999,37.4862375 ]
     },
     "properties": {
     "no":5828,
     "name":"올바로병원",
     "apt_id":1165010135,
     "dist":"984.104172517114"
     }
   },
   {
     "type": "Feature",
     "geometry": {
        "type": "Point",
        "coordinates":  [ 126.9878957,37.475653 ]
     },
     "properties": {
     "no":5829,
     "name":"대항병원",
     "apt_id":1165010135,
     "dist":"1057.93785528337"
     }
   },
   {
     "type": "Feature",
     "geometry": {
        "type": "Point",
        "coordinates":  [ 127.0051154,37.5009444 ]
     },
     "properties": {
     "no":5830,
     "name":"서울성모병원",
     "apt_id":1165010642,
     "dist":"921.634457924809"
     }
   },
   {
     "type": "Feature",
     "geometry": {
        "type": "Point",
        "coordinates":  [ 127.0137857,37.4949979 ]
     },
     "properties": {
     "no":5831,
     "name":"염창환병원",
     "apt_id":1165010642,
     "dist":"1771.93302993643"
     }
   },
   {
     "type": "Feature",
     "geometry": {
        "type": "Point",
        "coordinates":  [ 127.0227848,37.5070301 ]
     },
     "properties": {
     "no":5832,
     "name":"고도일병원",
     "apt_id":1165010642,
     "dist":"1842.32137999845"
     }
   },
   {
     "type": "Feature",
     "geometry": {
        "type": "Point",
        "coordinates":  [ 126.9899521,37.4930421 ]
     },
     "properties": {
     "no":5833,
     "name":"참푸른병원",
     "apt_id":1165010119,
     "dist":"728.580711162194"
     }
   },
   {
     "type": "Feature",
     "geometry": {
        "type": "Point",
        "coordinates":  [ 126.9805813,37.4843925 ]
     },
     "properties": {
     "no":5834,
     "name":"연세바른병원",
     "apt_id":1165010119,
     "dist":"1399.69959189715"
     }
   },
   {
     "type": "Feature",
     "geometry": {
        "type": "Point",
        "coordinates":  [ 126.995067,37.4878422 ]
     },
     "properties": {
     "no":5835,
     "name":"제일병원",
     "apt_id":1165010119,
     "dist":"1464.05141740571"
     }
   },
   {
     "type": "Feature",
     "geometry": {
        "type": "Point",
        "coordinates":  [ 126.9899521,37.4930421 ]
     },
     "properties": {
     "no":5836,
     "name":"참푸른병원",
     "apt_id":1165010126,
     "dist":"206.297512140701"
     }
   },
   {
     "type": "Feature",
     "geometry": {
        "type": "Point",
        "coordinates":  [ 126.995067,37.4878422 ]
     },
     "properties": {
     "no":5837,
     "name":"제일병원",
     "apt_id":1165010126,
     "dist":"753.619625371491"
     }
   },
   {
     "type": "Feature",
     "geometry": {
        "type": "Point",
        "coordinates":  [ 126.9805813,37.4843925 ]
     },
     "properties": {
     "no":5838,
     "name":"연세바른병원",
     "apt_id":1165010126,
     "dist":"1494.83988495508"
     }
   },
   {
     "type": "Feature",
     "geometry": {
        "type": "Point",
        "coordinates":  [ 127.033745,37.4899185 ]
     },
     "properties": {
     "no":5839,
     "name":"기쁨병원",
     "apt_id":1165010812,
     "dist":"780.610273957331"
     }
   },
   {
     "type": "Feature",
     "geometry": {
        "type": "Point",
        "coordinates":  [ 127.032598,37.483569 ]
     },
     "properties": {
     "no":5840,
     "name":"서초구보건소",
     "apt_id":1165010812,
     "dist":"964.325996861098"
     }
   },
   {
     "type": "Feature",
     "geometry": {
        "type": "Point",
        "coordinates":  [ 127.0351301,37.4849802 ]
     },
     "properties": {
     "no":5841,
     "name":"강남유나이티드병원",
     "apt_id":1165010812,
     "dist":"1074.64768625338"
     }
   },
   {
     "type": "Feature",
     "geometry": {
        "type": "Point",
        "coordinates":  [ 127.0157273,37.4852908 ]
     },
     "properties": {
     "no":5842,
     "name":"21세기병원",
     "apt_id":1165010825,
     "dist":"443.834595719456"
     }
   },
   {
     "type": "Feature",
     "geometry": {
        "type": "Point",
        "coordinates":  [ 127.0153417,37.4859524 ]
     },
     "properties": {
     "no":5843,
     "name":"세바른병원",
     "apt_id":1165010825,
     "dist":"491.539515025183"
     }
   },
   {
     "type": "Feature",
     "geometry": {
        "type": "Point",
        "coordinates":  [ 127.0141365,37.4929843 ]
     },
     "properties": {
     "no":5844,
     "name":"365엠씨병원",
     "apt_id":1165010825,
     "dist":"1008.74849505934"
     }
   },
   {
     "type": "Feature",
     "geometry": {
        "type": "Point",
        "coordinates":  [ 127.033745,37.4899185 ]
     },
     "properties": {
     "no":5845,
     "name":"기쁨병원",
     "apt_id":1165010816,
     "dist":"512.834662302504"
     }
   },
   {
     "type": "Feature",
     "geometry": {
        "type": "Point",
        "coordinates":  [ 127.032598,37.483569 ]
     },
     "properties": {
     "no":5846,
     "name":"서초구보건소",
     "apt_id":1165010816,
     "dist":"897.986229284096"
     }
   },
   {
     "type": "Feature",
     "geometry": {
        "type": "Point",
        "coordinates":  [ 127.0351301,37.4849802 ]
     },
     "properties": {
     "no":5847,
     "name":"강남유나이티드병원",
     "apt_id":1165010816,
     "dist":"919.108566176462"
     }
   },